{
  "totalCheckins": 646,
  "qualifyingCheckins": 4,
  "totalTrips": 35,
  "home": { "postalCode": "64113", "loc": "Kansas City, MO", "lat": 39.014071, "lng": -94.595907 },
  "range": "05/2018 to 05/2019",
  "startDate": "2018-05-01T04:00:00.000Z",
  "endDate": "2019-06-01T03:59:59.999Z",
  "start": "May 1, 2018",
  "end": "May 31, 2019",
  "trips": [
    {
      "startDate": "2018-05-01T20:29:17.000Z",
      "center": { "lat": "40.726224", "lng": "-73.970133" },
      "endDate": "2018-05-28T12:45:33.000Z",
      "start": "May 1, 2018",
      "end": "May 28, 2018",
      "range": "05/01 to 05/28",
      "city": "Brooklyn",
      "state": "NY",
      "checkins": [
        {
          "created": "2018-05-01T20:29:17.000Z",
          "id": "5ae8ce1d98fbfc002c88b942",
          "createdDate": "Tue, May 1st, 2018",
          "createdTime": "4:29pm",
          "createdEpoch": 1525206557,
          "createdSince": "a year ago",
          "name": "Facebook NY",
          "crossStreet": "at E 9th St",
          "city": "New York",
          "state": "NY",
          "postalCode": "10003",
          "location": { "lat": 40.730574980839634, "lng": -73.99125851847568 },
          "photos": [],
          "comments": []
        },
        {
          "created": "2018-05-03T22:37:28.000Z",
          "id": "5aeb8f28a30619002c4cd685",
          "createdDate": "Thu, May 3rd, 2018",
          "createdTime": "6:37pm",
          "createdEpoch": 1525387048,
          "createdSince": "a year ago",
          "name": "Blueprint",
          "crossStreet": "btwn Union St & Berkeley Pl",
          "city": "Brooklyn",
          "state": "NY",
          "postalCode": "11217",
          "location": { "lat": 40.67683673413956, "lng": -73.98022457561854 },
          "photos": [],
          "comments": []
        },
        {
          "created": "2018-05-04T02:29:20.000Z",
          "id": "5aebc580037be1002ca92cea",
          "createdDate": "Thu, May 3rd, 2018",
          "createdTime": "10:29pm",
          "createdEpoch": 1525400960,
          "createdSince": "a year ago",
          "name": "Skylark",
          "crossStreet": "at 11th St",
          "city": "Brooklyn",
          "state": "NY",
          "postalCode": "11215",
          "location": { "lat": 40.667909926463636, "lng": -73.9872939078428 },
          "photos": [],
          "comments": []
        },
        {
          "created": "2018-05-05T02:39:23.000Z",
          "id": "5aed195b73fe25002b772fbd",
          "createdDate": "Fri, May 4th, 2018",
          "createdTime": "10:39pm",
          "createdEpoch": 1525487963,
          "createdSince": "a year ago",
          "name": "Bar Tano",
          "crossStreet": "at 9th St",
          "city": "Brooklyn",
          "state": "NY",
          "postalCode": "11215",
          "location": { "lat": 40.67136258535797, "lng": -73.99103934276492 },
          "photos": [],
          "comments": []
        },
        {
          "created": "2018-05-05T04:40:10.000Z",
          "id": "5aed35aaf8cbd4002ce24431",
          "createdDate": "Sat, May 5th, 2018",
          "createdTime": "12:40am",
          "createdEpoch": 1525495210,
          "createdSince": "a year ago",
          "name": "Commonwealth",
          "crossStreet": "at 12th St",
          "city": "Brooklyn",
          "state": "NY",
          "postalCode": "11215",
          "location": { "lat": 40.6673044107046, "lng": -73.98776758155687 },
          "photos": [],
          "comments": []
        },
        {
          "created": "2018-05-06T23:37:58.000Z",
          "id": "5aef91d69f8a9f002c3796ef",
          "createdDate": "Sun, May 6th, 2018",
          "createdTime": "7:37pm",
          "createdEpoch": 1525649878,
          "createdSince": "a year ago",
          "name": "Hugo & Sons",
          "city": "Brooklyn",
          "state": "NY",
          "postalCode": "11215",
          "location": { "lat": 40.665625, "lng": -73.982865 },
          "photos": [],
          "comments": []
        },
        {
          "created": "2018-05-08T05:01:29.000Z",
          "id": "5af12f29d7627e002c9c00b8",
          "createdDate": "Tue, May 8th, 2018",
          "createdTime": "1:01am",
          "createdEpoch": 1525755689,
          "createdSince": "a year ago",
          "name": "CVS pharmacy",
          "crossStreet": "E. 91st St.",
          "city": "New York",
          "state": "NY",
          "postalCode": "10128",
          "location": { "lat": 40.78228055274528, "lng": -73.95173150533604 },
          "photos": [],
          "comments": []
        },
        {
          "created": "2018-05-12T18:19:24.000Z",
          "id": "5af7302c79f6c70039267c56",
          "createdDate": "Sat, May 12th, 2018",
          "createdTime": "2:19pm",
          "createdEpoch": 1526149164,
          "createdSince": "a year ago",
          "name": "Tino's Delicatessen",
          "shout": "with Albert",
          "crossStreet": "E. 187 St.",
          "city": "Bronx",
          "state": "NY",
          "postalCode": "10458",
          "location": { "lat": 40.85588217093613, "lng": -73.88716612015719 },
          "photos": [],
          "comments": []
        },
        {
          "created": "2018-05-12T19:02:26.000Z",
          "id": "5af73a42054e29002c5617ec",
          "createdDate": "Sat, May 12th, 2018",
          "createdTime": "3:02pm",
          "createdEpoch": 1526151746,
          "createdSince": "a year ago",
          "name": "Randazzo's Seafood",
          "city": "Bronx",
          "state": "NY",
          "postalCode": "10458",
          "location": { "lat": 40.85399539411456, "lng": -73.88893932532154 },
          "photos": [],
          "comments": []
        },
        {
          "created": "2018-05-12T19:39:34.000Z",
          "id": "5af742f67dc9e1002c121c76",
          "createdDate": "Sat, May 12th, 2018",
          "createdTime": "3:39pm",
          "createdEpoch": 1526153974,
          "createdSince": "a year ago",
          "name": "Calandra's Cheese",
          "city": "Bronx",
          "state": "NY",
          "postalCode": "10458",
          "location": { "lat": 40.85375691342471, "lng": -73.88907421950137 },
          "photos": [],
          "comments": []
        },
        {
          "created": "2018-05-12T19:39:50.000Z",
          "id": "5af74306974617002c51ff72",
          "createdDate": "Sat, May 12th, 2018",
          "createdTime": "3:39pm",
          "createdEpoch": 1526153990,
          "createdSince": "a year ago",
          "name": "Biancardi Meats",
          "city": "Bronx",
          "state": "NY",
          "postalCode": "10458",
          "location": { "lat": 40.85464215028273, "lng": -73.88831633128795 },
          "photos": [],
          "comments": []
        },
        {
          "created": "2018-05-12T19:40:12.000Z",
          "id": "5af7431c054e29002c6a4502",
          "createdDate": "Sat, May 12th, 2018",
          "createdTime": "3:40pm",
          "createdEpoch": 1526154012,
          "createdSince": "a year ago",
          "name": "Arthur Avenue Retail Market",
          "city": "Bronx",
          "state": "NY",
          "postalCode": "10458",
          "location": { "lat": 40.854156791455715, "lng": -73.88817917236352 },
          "photos": [],
          "comments": []
        },
        {
          "created": "2018-05-12T19:40:46.000Z",
          "id": "5af7433ef0ca9500390231f7",
          "createdDate": "Sat, May 12th, 2018",
          "createdTime": "3:40pm",
          "createdEpoch": 1526154046,
          "createdSince": "a year ago",
          "name": "Madonia Bakery",
          "city": "Bronx",
          "state": "NY",
          "postalCode": "10458",
          "location": { "lat": 40.85441232476012, "lng": -73.88851590024353 },
          "photos": [],
          "comments": []
        },
        {
          "created": "2018-05-12T20:14:48.000Z",
          "id": "5af74b38234724002c73d1a0",
          "createdDate": "Sat, May 12th, 2018",
          "createdTime": "4:14pm",
          "createdEpoch": 1526156088,
          "createdSince": "a year ago",
          "name": "New York Public Library – Belmont Library & Enrico Fermi Cultural Center",
          "crossStreet": "at Hughes Ave.",
          "city": "Bronx",
          "state": "NY",
          "postalCode": "10458",
          "location": { "lat": 40.854406726607465, "lng": -73.8877218004222 },
          "photos": [],
          "comments": []
        },
        {
          "created": "2018-05-12T22:24:22.000Z",
          "id": "5af76996c9a517002c70a351",
          "createdDate": "Sat, May 12th, 2018",
          "createdTime": "6:24pm",
          "createdEpoch": 1526163862,
          "createdSince": "a year ago",
          "name": "Clinton Hall",
          "city": "Bronx",
          "state": "NY",
          "postalCode": "10458",
          "location": { "lat": 40.857304458110725, "lng": -73.8858122629058 },
          "photos": [],
          "comments": []
        },
        {
          "created": "2018-05-15T17:31:30.000Z",
          "id": "5afb197228374e002c32d76c",
          "createdDate": "Tue, May 15th, 2018",
          "createdTime": "1:31pm",
          "createdEpoch": 1526405490,
          "createdSince": "a year ago",
          "name": "Dig Inn",
          "crossStreet": "btwn E 87th & E 88th St",
          "city": "New York",
          "state": "NY",
          "postalCode": "10128",
          "location": { "lat": 40.780312, "lng": -73.954745 },
          "photos": [],
          "comments": []
        },
        {
          "created": "2018-05-20T01:13:13.000Z",
          "id": "5b00cba90f013c0039efc492",
          "createdDate": "Sat, May 19th, 2018",
          "createdTime": "9:13pm",
          "createdEpoch": 1526778793,
          "createdSince": "12 months ago",
          "name": "Ward III",
          "shout": "Kicking off our 3rd Anniversary evening with a visit to an old haunt from our first month in NYC.",
          "crossStreet": "btwn W Broadway & Church St",
          "city": "New York",
          "state": "NY",
          "postalCode": "10013",
          "location": { "lat": 40.715885126086015, "lng": -74.00871361902418 },
          "photos": [],
          "comments": []
        },
        {
          "created": "2018-05-20T21:47:46.000Z",
          "id": "5b01ed029deb7d002c77fdc8",
          "createdDate": "Sun, May 20th, 2018",
          "createdTime": "5:47pm",
          "createdEpoch": 1526852866,
          "createdSince": "12 months ago",
          "name": "Paws in Paradise",
          "crossStreet": "btw 7th & 8th St",
          "city": "Brooklyn",
          "state": "NY",
          "postalCode": "11215",
          "location": { "lat": 40.67020091351318, "lng": -73.98547542270082 },
          "photos": [],
          "comments": []
        },
        {
          "created": "2018-05-21T15:28:20.000Z",
          "id": "5b02e594ba57b4002b3e97a5",
          "createdDate": "Mon, May 21st, 2018",
          "createdTime": "11:28am",
          "createdEpoch": 1526916500,
          "createdSince": "12 months ago",
          "name": "Lowe's Home Improvement",
          "crossStreet": "at 10th St",
          "city": "Brooklyn",
          "state": "NY",
          "postalCode": "11215",
          "location": { "lat": 40.6717774, "lng": -73.9951671 },
          "photos": [],
          "comments": []
        },
        {
          "created": "2018-05-21T17:55:27.000Z",
          "id": "5b03080fa30619002c67df5d",
          "createdDate": "Mon, May 21st, 2018",
          "createdTime": "1:55pm",
          "createdEpoch": 1526925327,
          "createdSince": "12 months ago",
          "name": "SohoMD",
          "city": "New York",
          "state": "NY",
          "postalCode": "10013",
          "location": { "lat": 40.7182131, "lng": -74.0009721 },
          "photos": [],
          "comments": []
        },
        {
          "created": "2018-05-24T23:54:03.000Z",
          "id": "5b07509bea1e44002ce0ec72",
          "createdDate": "Thu, May 24th, 2018",
          "createdTime": "7:54pm",
          "createdEpoch": 1527206043,
          "createdSince": "12 months ago",
          "name": "Lowe's Home Improvement",
          "crossStreet": "at 10th St",
          "city": "Brooklyn",
          "state": "NY",
          "postalCode": "11215",
          "location": { "lat": 40.6717774, "lng": -73.9951671 },
          "photos": [],
          "comments": []
        },
        {
          "created": "2018-05-25T05:01:24.000Z",
          "id": "5b0798a4f4b525002c3ce79d",
          "createdDate": "Fri, May 25th, 2018",
          "createdTime": "1:01am",
          "createdEpoch": 1527224484,
          "createdSince": "12 months ago",
          "name": "Skylark",
          "crossStreet": "at 11th St",
          "city": "Brooklyn",
          "state": "NY",
          "postalCode": "11215",
          "location": { "lat": 40.667909926463636, "lng": -73.9872939078428 },
          "photos": [],
          "comments": []
        },
        {
          "created": "2018-05-25T19:42:08.000Z",
          "id": "5b0867102619ee002c3aad4a",
          "createdDate": "Fri, May 25th, 2018",
          "createdTime": "3:42pm",
          "createdEpoch": 1527277328,
          "createdSince": "12 months ago",
          "name": "Café Regular",
          "crossStreet": "btwn 4th & 5th Ave.",
          "city": "Brooklyn",
          "state": "NY",
          "postalCode": "11215",
          "location": { "lat": 40.66814559059938, "lng": -73.98758987069017 },
          "photos": [],
          "comments": []
        },
        {
          "created": "2018-05-25T22:37:46.000Z",
          "id": "5b08903a5455b2002ce878ac",
          "createdDate": "Fri, May 25th, 2018",
          "createdTime": "6:37pm",
          "createdEpoch": 1527287866,
          "createdSince": "12 months ago",
          "name": "Beer Culture",
          "shout": "Hitting one of our first NYC haunts before dinner.",
          "crossStreet": "btwn 8th & 9th Ave",
          "city": "New York",
          "state": "NY",
          "postalCode": "10036",
          "location": { "lat": 40.75960047129065, "lng": -73.98971467943909 },
          "photos": [],
          "comments": []
        },
        {
          "created": "2018-05-26T00:41:02.000Z",
          "id": "5b08ad1eda5ede002cb9f9a4",
          "createdDate": "Fri, May 25th, 2018",
          "createdTime": "8:41pm",
          "createdEpoch": 1527295262,
          "createdSince": "12 months ago",
          "name": "The Marshal",
          "shout": "Having a date night at one of our favorite restaurants.",
          "crossStreet": "btwn 44th St & 45th St",
          "city": "New York",
          "state": "NY",
          "postalCode": "10036",
          "location": { "lat": 40.7613412833165, "lng": -73.9942768975244 },
          "photos": [],
          "comments": []
        },
        {
          "created": "2018-05-26T02:00:18.000Z",
          "id": "5b08bfb2cad1b6002ca8b232",
          "createdDate": "Fri, May 25th, 2018",
          "createdTime": "10:00pm",
          "createdEpoch": 1527300018,
          "createdSince": "12 months ago",
          "name": "Charter Technology Solutions",
          "shout": "This is actually Marseille",
          "crossStreet": "3rd Ave",
          "city": "Brooklyn",
          "state": "NY",
          "postalCode": "11232",
          "location": { "lat": 40.664272, "lng": -73.9966 },
          "photos": [],
          "comments": []
        },
        {
          "created": "2018-05-26T18:44:08.000Z",
          "id": "5b09aaf87e4b4e0024ae75ca",
          "createdDate": "Sat, May 26th, 2018",
          "createdTime": "2:44pm",
          "createdEpoch": 1527360248,
          "createdSince": "12 months ago",
          "name": "Fort Defiance",
          "crossStreet": "at Dikeman St",
          "city": "Brooklyn",
          "state": "NY",
          "postalCode": "11231",
          "location": { "lat": 40.67679024203255, "lng": -74.0135475904526 },
          "photos": [],
          "comments": []
        },
        {
          "created": "2018-05-26T19:06:46.000Z",
          "id": "5b09b046c53093003912c53e",
          "createdDate": "Sat, May 26th, 2018",
          "createdTime": "3:06pm",
          "createdEpoch": 1527361606,
          "createdSince": "12 months ago",
          "name": "Red Hook Winery",
          "crossStreet": "325 A",
          "city": "Brooklyn",
          "state": "NY",
          "postalCode": "11231",
          "location": { "lat": 40.67667757677002, "lng": -74.01914349551392 },
          "photos": [],
          "comments": []
        },
        {
          "created": "2018-05-26T19:49:42.000Z",
          "id": "5b09ba56625a66002cdd6e92",
          "createdDate": "Sat, May 26th, 2018",
          "createdTime": "3:49pm",
          "createdEpoch": 1527364182,
          "createdSince": "12 months ago",
          "name": "Louis Valentino Jr Park & Pier",
          "city": "Brooklyn",
          "state": "NY",
          "postalCode": "11231",
          "location": { "lat": 40.67842899326607, "lng": -74.01819705963135 },
          "photos": [],
          "comments": []
        },
        {
          "created": "2018-05-27T00:54:33.000Z",
          "id": "5b0a01c9840fc2003663786b",
          "createdDate": "Sat, May 26th, 2018",
          "createdTime": "8:54pm",
          "createdEpoch": 1527382473,
          "createdSince": "12 months ago",
          "name": "Olivier Bistro",
          "crossStreet": "Btwn 11th & 12th St",
          "city": "Brooklyn",
          "state": "NY",
          "postalCode": "11215",
          "location": { "lat": 40.6689139570399, "lng": -73.98994942520484 },
          "photos": [],
          "comments": []
        },
        {
          "created": "2018-05-27T00:54:44.000Z",
          "id": "5b0a01d4238706002470e26e",
          "createdDate": "Sat, May 26th, 2018",
          "createdTime": "8:54pm",
          "createdEpoch": 1527382484,
          "createdSince": "12 months ago",
          "name": "Bar Tano",
          "crossStreet": "at 9th St",
          "city": "Brooklyn",
          "state": "NY",
          "postalCode": "11215",
          "location": { "lat": 40.67136258535797, "lng": -73.99103934276492 },
          "photos": [],
          "comments": []
        },
        {
          "created": "2018-05-27T03:37:18.000Z",
          "id": "5b0a27ee9f8a9f002ca69b65",
          "createdDate": "Sat, May 26th, 2018",
          "createdTime": "11:37pm",
          "createdEpoch": 1527392238,
          "createdSince": "12 months ago",
          "name": "Barbès",
          "crossStreet": "at 6th Ave.",
          "city": "Brooklyn",
          "state": "NY",
          "postalCode": "11215",
          "location": { "lat": 40.66795378942797, "lng": -73.98391119053746 },
          "photos": [],
          "comments": []
        },
        {
          "created": "2018-05-27T22:32:41.000Z",
          "id": "5b0b320967e5f2002ce262c7",
          "createdDate": "Sun, May 27th, 2018",
          "createdTime": "6:32pm",
          "createdEpoch": 1527460361,
          "createdSince": "12 months ago",
          "name": "Olivier Bistro",
          "crossStreet": "Btwn 11th & 12th St",
          "city": "Brooklyn",
          "state": "NY",
          "postalCode": "11215",
          "location": { "lat": 40.6689139570399, "lng": -73.98994942520484 },
          "photos": [],
          "comments": []
        },
        {
          "created": "2018-05-28T03:05:38.000Z",
          "id": "5b0b72026bdee6002caed4a8",
          "createdDate": "Sun, May 27th, 2018",
          "createdTime": "11:05pm",
          "createdEpoch": 1527476738,
          "createdSince": "12 months ago",
          "name": "The Malt House FiDi",
          "crossStreet": "btwn Broadway & Cortlandt St",
          "city": "New York",
          "state": "NY",
          "postalCode": "10038",
          "location": { "lat": 40.7094042310673, "lng": -74.00984190111932 },
          "photos": [],
          "comments": []
        },
        {
          "created": "2018-05-28T12:27:34.000Z",
          "id": "5b0bf5b6838e59002cd35ad7",
          "createdDate": "Mon, May 28th, 2018",
          "createdTime": "8:27am",
          "createdEpoch": 1527510454,
          "createdSince": "12 months ago",
          "name": "Starbucks",
          "crossStreet": "11th St",
          "city": "New York",
          "state": "NY",
          "postalCode": "11215",
          "location": { "lat": 40.66934279973316, "lng": -73.98982298230987 },
          "photos": [],
          "comments": []
        },
        {
          "created": "2018-05-28T12:45:33.000Z",
          "id": "5b0bf9ed6adbf5002c66d2b4",
          "createdDate": "Mon, May 28th, 2018",
          "createdTime": "8:45am",
          "createdEpoch": 1527511533,
          "createdSince": "12 months ago",
          "name": "Verrazzano-Narrows Bridge",
          "crossStreet": "I-278",
          "city": "Brooklyn",
          "state": "NY",
          "postalCode": "10305",
          "location": { "lat": 40.60603635565957, "lng": -74.04598830429194 },
          "photos": [],
          "comments": []
        }
      ],
      "count": 36
    },
    {
      "startDate": "2018-05-29T16:10:11.000Z",
      "center": { "lat": "38.277185", "lng": "-85.800892" },
      "endDate": "2018-05-29T18:30:36.000Z",
      "start": "May 29, 2018",
      "end": "May 29, 2018",
      "range": "05/29",
      "city": "Louisville",
      "state": "KY",
      "checkins": [
        {
          "created": "2018-05-29T16:10:11.000Z",
          "id": "5b0d7b63c47cf9002ce00db5",
          "createdDate": "Tue, May 29th, 2018",
          "createdTime": "12:10pm",
          "createdEpoch": 1527610211,
          "createdSince": "12 months ago",
          "name": "Louisville Marriott Downtown",
          "city": "Louisville",
          "state": "KY",
          "postalCode": "40202",
          "location": { "lat": 38.252934064296504, "lng": -85.75473144132047 },
          "photos": [],
          "comments": []
        },
        {
          "created": "2018-05-29T16:30:25.000Z",
          "id": "5b0d80211ffe97002ca81184",
          "createdDate": "Tue, May 29th, 2018",
          "createdTime": "12:30pm",
          "createdEpoch": 1527611425,
          "createdSince": "12 months ago",
          "name": "Jim Beam Urban Stillhouse",
          "crossStreet": "Liberty",
          "city": "Louisville",
          "state": "KY",
          "postalCode": "40202",
          "location": { "lat": 38.252762490366514, "lng": -85.75734284603271 },
          "photos": [],
          "comments": []
        },
        {
          "created": "2018-05-29T18:30:36.000Z",
          "id": "5b0d9c4cc4df1d002ceac582",
          "createdDate": "Tue, May 29th, 2018",
          "createdTime": "2:30pm",
          "createdEpoch": 1527618636,
          "createdSince": "12 months ago",
          "name": "Arthur Park",
          "state": "Indiana",
          "location": { "lat": 38.325806465218754, "lng": -85.89069136124172 },
          "photos": [],
          "comments": []
        }
      ],
      "count": 3
    },
    {
      "startDate": "2018-05-29T20:05:02.000Z",
      "center": { "lat": "38.191624", "lng": "-87.850860" },
      "endDate": "2018-05-29T20:25:22.000Z",
      "start": "May 29, 2018",
      "end": "May 29, 2018",
      "range": "05/29",
      "city": "Poseyville",
      "state": "IN",
      "checkins": [
        {
          "created": "2018-05-29T20:05:02.000Z",
          "id": "5b0db26e088158002cd1b3e1",
          "createdDate": "Tue, May 29th, 2018",
          "createdTime": "3:05pm",
          "createdEpoch": 1527624302,
          "createdSince": "12 months ago",
          "name": "One Stop Express",
          "crossStreet": "Hwy 68",
          "city": "Poseyville",
          "state": "IN",
          "postalCode": "47633",
          "location": { "lat": 38.17121411325364, "lng": -87.7806771084508 },
          "photos": [],
          "comments": []
        },
        {
          "created": "2018-05-29T20:15:21.000Z",
          "id": "5b0db4d935d3fc002c0a169f",
          "createdDate": "Tue, May 29th, 2018",
          "createdTime": "3:15pm",
          "createdEpoch": 1527624921,
          "createdSince": "12 months ago",
          "name": "Poseyville",
          "city": "Poseyville",
          "state": "IN",
          "postalCode": "47633",
          "location": { "lat": 38.17156737018637, "lng": -87.78339238643217 },
          "photos": [],
          "comments": []
        },
        {
          "created": "2018-05-29T20:25:22.000Z",
          "id": "5b0db7324b78c5002c84be32",
          "createdDate": "Tue, May 29th, 2018",
          "createdTime": "3:25pm",
          "createdEpoch": 1527625522,
          "createdSince": "12 months ago",
          "name": "Skeeter Mountain Rest Area",
          "city": "Grayville",
          "state": "IL",
          "postalCode": "62844",
          "location": { "lat": 38.2319699438427, "lng": -87.98862665949508 },
          "photos": [],
          "comments": []
        }
      ],
      "count": 3
    },
    {
      "startDate": "2018-07-29T20:55:25.000Z",
      "center": { "lat": "43.202515", "lng": "-79.093429" },
      "endDate": "2018-07-31T21:13:01.000Z",
      "start": "July 29, 2018",
      "end": "July 31, 2018",
      "range": "07/29 to 07/31",
      "city": "St. Davids",
      "state": "ON",
      "checkins": [
        {
          "created": "2018-07-29T20:55:25.000Z",
          "id": "5b5e29bdb04056002c21749f",
          "createdDate": "Sun, Jul 29th, 2018",
          "createdTime": "4:55pm",
          "createdEpoch": 1532897725,
          "createdSince": "10 months ago",
          "name": "St Davids Golf Club",
          "city": "St. Davids",
          "state": "ON",
          "postalCode": "L0S 1P0",
          "location": { "lat": 43.15657313842783, "lng": -79.10122793378125 },
          "photos": [],
          "comments": []
        },
        {
          "created": "2018-07-29T21:12:02.000Z",
          "id": "5b5e2da29e0d54002ccaa145",
          "createdDate": "Sun, Jul 29th, 2018",
          "createdTime": "5:12pm",
          "createdEpoch": 1532898722,
          "createdSince": "10 months ago",
          "name": "The Old Firehall",
          "crossStreet": "at York Rd.",
          "city": "St. Davids",
          "state": "ON",
          "location": { "lat": 43.15883362686978, "lng": -79.10207193118632 },
          "photos": [],
          "comments": []
        },
        {
          "created": "2018-07-31T17:54:36.000Z",
          "id": "5b60a25c9be5220039cb3826",
          "createdDate": "Tue, Jul 31st, 2018",
          "createdTime": "1:54pm",
          "createdEpoch": 1533059676,
          "createdSince": "10 months ago",
          "name": "Balzac's Coffee",
          "crossStreet": "at Queen St.",
          "city": "Niagara-on-the-Lake",
          "state": "ON",
          "postalCode": "L0S 1J0",
          "location": { "lat": 43.25444710084112, "lng": -79.07147520533269 },
          "photos": [],
          "comments": []
        },
        {
          "created": "2018-07-31T21:13:01.000Z",
          "id": "5b60d0ddacb37f002ccd5320",
          "createdDate": "Tue, Jul 31st, 2018",
          "createdTime": "5:13pm",
          "createdEpoch": 1533071581,
          "createdSince": "10 months ago",
          "name": "Niagara Oast House Brewers",
          "city": "Niagara-on-the-Lake",
          "state": "ON",
          "postalCode": "L0S 1T0",
          "location": { "lat": 43.240201977928095, "lng": -79.09891441503288 },
          "photos": [],
          "comments": []
        }
      ],
      "count": 4
    },
    {
      "startDate": "2018-08-11T01:53:00.000Z",
      "center": { "lat": "39.780231", "lng": "-104.879573" },
      "endDate": "2018-08-12T16:11:43.000Z",
      "start": "August 10, 2018",
      "end": "August 12, 2018",
      "range": "08/10 to 08/11",
      "city": "Denver",
      "state": "CO",
      "checkins": [
        {
          "created": "2018-08-11T01:53:00.000Z",
          "id": "5b6e417cb1538e002c26b148",
          "createdDate": "Fri, Aug 10th, 2018",
          "createdTime": "7:53pm",
          "createdEpoch": 1533952380,
          "createdSince": "9 months ago",
          "name": "Denver International Airport (DEN)",
          "city": "Denver",
          "state": "CO",
          "postalCode": "80249",
          "location": { "lat": 39.849732690480224, "lng": -104.6739818796553 },
          "photos": [],
          "comments": []
        },
        {
          "created": "2018-08-11T02:55:13.000Z",
          "id": "5b6e501179f6c7002ce29dea",
          "createdDate": "Fri, Aug 10th, 2018",
          "createdTime": "8:55pm",
          "createdEpoch": 1533956113,
          "createdSince": "9 months ago",
          "name": "Warwick Denver Hotel",
          "city": "Denver",
          "state": "CO",
          "postalCode": "80203",
          "location": { "lat": 39.744455808008446, "lng": -104.98344164306306 },
          "photos": [],
          "comments": []
        },
        {
          "created": "2018-08-11T14:45:41.000Z",
          "id": "5b6ef695b3d8e2003463b4e7",
          "createdDate": "Sat, Aug 11th, 2018",
          "createdTime": "8:45am",
          "createdEpoch": 1533998741,
          "createdSince": "9 months ago",
          "name": "Fluid Coffee Bar",
          "crossStreet": "19th and Pennsylvania",
          "city": "Denver",
          "state": "CO",
          "postalCode": "80203",
          "location": { "lat": 39.746231716228024, "lng": -104.98098191638154 },
          "photos": [],
          "comments": []
        },
        {
          "created": "2018-08-11T17:11:50.000Z",
          "id": "5b6f18d675eee4002ce5447b",
          "createdDate": "Sat, Aug 11th, 2018",
          "createdTime": "11:11am",
          "createdEpoch": 1534007510,
          "createdSince": "9 months ago",
          "name": "Mount Falcon Park",
          "shout": "with Miranda",
          "city": "Morrison",
          "state": "CO",
          "postalCode": "80465",
          "location": { "lat": 39.63600879044091, "lng": -105.23933387138952 },
          "photos": [],
          "comments": []
        },
        {
          "created": "2018-08-11T19:07:10.000Z",
          "id": "5b6f33de2b9844002c5f11ff",
          "createdDate": "Sat, Aug 11th, 2018",
          "createdTime": "1:07pm",
          "createdEpoch": 1534014430,
          "createdSince": "9 months ago",
          "name": "New Terrain Brewing Co",
          "shout": "with Miranda",
          "city": "Golden",
          "state": "CO",
          "postalCode": "80403",
          "location": { "lat": 39.779466457784444, "lng": -105.18603216842929 },
          "photos": [],
          "comments": []
        },
        {
          "created": "2018-08-11T22:57:50.000Z",
          "id": "5b6f69ee4c30be0031e99463",
          "createdDate": "Sat, Aug 11th, 2018",
          "createdTime": "4:57pm",
          "createdEpoch": 1534028270,
          "createdSince": "9 months ago",
          "name": "Warwick Denver Hotel",
          "city": "Denver",
          "state": "CO",
          "postalCode": "80203",
          "location": { "lat": 39.744455808008446, "lng": -104.98344164306306 },
          "photos": [],
          "comments": []
        },
        {
          "created": "2018-08-12T03:33:01.000Z",
          "id": "5b6faa6d1c062d00241e6806",
          "createdDate": "Sat, Aug 11th, 2018",
          "createdTime": "9:33pm",
          "createdEpoch": 1534044781,
          "createdSince": "9 months ago",
          "name": "Beatrice & Woodsley",
          "shout": "Happy (early) Birthday to me dinner...!",
          "crossStreet": "Ellsworth",
          "city": "Denver",
          "state": "CO",
          "postalCode": "80209",
          "location": { "lat": 39.7158746375889, "lng": -104.98722556450753 },
          "photos": [],
          "comments": []
        },
        {
          "created": "2018-08-12T04:06:30.000Z",
          "id": "5b6fb246e7a237002c9cb7e5",
          "createdDate": "Sat, Aug 11th, 2018",
          "createdTime": "10:06pm",
          "createdEpoch": 1534046790,
          "createdSince": "9 months ago",
          "name": "The Cooper Lounge",
          "shout": "An excellent recommendation from David ...!",
          "city": "Denver",
          "state": "CO",
          "postalCode": "80202",
          "location": { "lat": 39.75305569485879, "lng": -105.00002361333344 },
          "photos": [],
          "comments": []
        },
        {
          "created": "2018-08-12T06:28:12.000Z",
          "id": "5b6fd37c250cab002c560619",
          "createdDate": "Sun, Aug 12th, 2018",
          "createdTime": "12:28am",
          "createdEpoch": 1534055292,
          "createdSince": "9 months ago",
          "name": "Green Russell",
          "shout": "ANOTHER amazing recommendation from David ... our niceness earned us a table...!",
          "crossStreet": "btw 14th & 15th",
          "city": "Denver",
          "state": "CO",
          "postalCode": "80202",
          "location": { "lat": 39.747634, "lng": -104.999245 },
          "photos": [],
          "comments": []
        },
        {
          "created": "2018-08-12T06:45:40.000Z",
          "id": "5b6fd7941ffed7002cbb4532",
          "createdDate": "Sun, Aug 12th, 2018",
          "createdTime": "12:45am",
          "createdEpoch": 1534056340,
          "createdSince": "9 months ago",
          "name": "Warwick Denver Hotel",
          "city": "Denver",
          "state": "CO",
          "postalCode": "80203",
          "location": { "lat": 39.744455808008446, "lng": -104.98344164306306 },
          "photos": [],
          "comments": []
        },
        {
          "created": "2018-08-12T16:11:43.000Z",
          "id": "5b705c3f2619ee002cb5f8e7",
          "createdDate": "Sun, Aug 12th, 2018",
          "createdTime": "10:11am",
          "createdEpoch": 1534090303,
          "createdSince": "9 months ago",
          "name": "Denver Biscuit Company",
          "crossStreet": "at Adams St",
          "city": "Denver",
          "state": "CO",
          "postalCode": "80206",
          "location": { "lat": 39.74033932393551, "lng": -104.94896815484574 },
          "photos": [],
          "comments": []
        }
      ],
      "count": 11
    },
    {
      "startDate": "2018-08-12T19:16:05.000Z",
      "center": { "lat": "40.017652", "lng": "-105.279876" },
      "endDate": "2018-08-12T19:16:21.000Z",
      "start": "August 12, 2018",
      "end": "August 12, 2018",
      "range": "08/12",
      "city": "Boulder",
      "state": "CO",
      "checkins": [
        {
          "created": "2018-08-12T19:16:05.000Z",
          "id": "5b7087753d4791002c41b24b",
          "createdDate": "Sun, Aug 12th, 2018",
          "createdTime": "1:16pm",
          "createdEpoch": 1534101365,
          "createdSince": "9 months ago",
          "name": "Downtown Boulder, Inc",
          "crossStreet": "Pearl Street",
          "city": "Boulder",
          "state": "CO",
          "postalCode": "80302",
          "location": { "lat": 40.017621, "lng": -105.279756 },
          "photos": [],
          "comments": []
        },
        {
          "created": "2018-08-12T19:16:21.000Z",
          "id": "5b708785780eee002c032c78",
          "createdDate": "Sun, Aug 12th, 2018",
          "createdTime": "1:16pm",
          "createdEpoch": 1534101381,
          "createdSince": "9 months ago",
          "name": "Lindsay's Boulder Deli",
          "crossStreet": "at Broadway",
          "city": "Boulder",
          "state": "CO",
          "postalCode": "80302",
          "location": { "lat": 40.017683807510664, "lng": -105.27999574041857 },
          "photos": [],
          "comments": []
        }
      ],
      "count": 2
    },
    {
      "startDate": "2018-08-13T00:36:55.000Z",
      "center": { "lat": "39.751346", "lng": "-105.000884" },
      "endDate": "2018-08-13T23:39:47.000Z",
      "start": "August 12, 2018",
      "end": "August 13, 2018",
      "range": "08/12 to 08/13",
      "city": "Denver",
      "state": "CO",
      "checkins": [
        {
          "created": "2018-08-13T00:36:55.000Z",
          "id": "5b70d2a7a35dce002c5c89df",
          "createdDate": "Sun, Aug 12th, 2018",
          "createdTime": "6:36pm",
          "createdEpoch": 1534120615,
          "createdSince": "9 months ago",
          "name": "El Five",
          "city": "Denver",
          "state": "CO",
          "postalCode": "80211",
          "location": { "lat": 39.759196100717645, "lng": -105.01130134557133 },
          "photos": [],
          "comments": []
        },
        {
          "created": "2018-08-13T23:39:47.000Z",
          "id": "5b7216c3a0215b002c44bb78",
          "createdDate": "Mon, Aug 13th, 2018",
          "createdTime": "5:39pm",
          "createdEpoch": 1534203587,
          "createdSince": "9 months ago",
          "name": "Hard Rock Cafe Denver",
          "crossStreet": "in Denver Pavilions",
          "city": "Denver",
          "state": "CO",
          "postalCode": "80202",
          "location": { "lat": 39.74349519073927, "lng": -104.99046851901437 }
        }
      ],
      "count": 2
    },
    {
      "startDate": "2018-09-27T00:49:18.000Z",
      "center": { "lat": "43.646826", "lng": "-79.422675" },
      "endDate": "2018-09-28T02:45:52.000Z",
      "start": "September 26, 2018",
      "end": "September 27, 2018",
      "range": "09/26 to 09/27",
      "city": "Toronto",
      "state": "ON",
      "checkins": [
        {
          "created": "2018-09-27T00:49:18.000Z",
          "id": "5bac290e419a9e002c854cb5",
          "createdDate": "Wed, Sep 26th, 2018",
          "createdTime": "8:49pm",
          "createdEpoch": 1538009358,
          "createdSince": "8 months ago",
          "name": "The Good Son",
          "city": "Toronto",
          "state": "ON",
          "postalCode": "M6J 1H9",
          "location": { "lat": 43.64344851719381, "lng": -79.4226777074418 },
          "photos": [],
          "comments": []
        },
        {
          "created": "2018-09-27T05:02:12.000Z",
          "id": "5bac64542b9844002c2f6859",
          "createdDate": "Thu, Sep 27th, 2018",
          "createdTime": "1:02am",
          "createdEpoch": 1538024532,
          "createdSince": "8 months ago",
          "name": "The Beaver Café",
          "city": "Toronto",
          "state": "ON",
          "postalCode": "M6J 1J6",
          "location": { "lat": 43.64272526259587, "lng": -79.42641644740938 },
          "comments": []
        },
        {
          "created": "2018-09-27T23:48:43.000Z",
          "id": "5bad6c5b005ac1002c8c1aac",
          "createdDate": "Thu, Sep 27th, 2018",
          "createdTime": "7:48pm",
          "createdEpoch": 1538092123,
          "createdSince": "8 months ago",
          "name": "Bar Sybanne",
          "city": "Toronto",
          "state": "ON",
          "postalCode": "M6J 2Z8",
          "location": { "lat": 43.649164, "lng": -79.420393 },
          "photos": [],
          "comments": []
        },
        {
          "created": "2018-09-28T02:45:21.000Z",
          "id": "5bad95c1356b49003913c581",
          "createdDate": "Thu, Sep 27th, 2018",
          "createdTime": "10:45pm",
          "createdEpoch": 1538102721,
          "createdSince": "8 months ago",
          "name": "Churchill",
          "city": "Toronto",
          "state": "ON",
          "location": { "lat": 43.64943238637439, "lng": -79.42292254863663 },
          "photos": [],
          "comments": []
        },
        {
          "created": "2018-09-28T02:45:52.000Z",
          "id": "5bad95e0fb8e59002cd2d490",
          "createdDate": "Thu, Sep 27th, 2018",
          "createdTime": "10:45pm",
          "createdEpoch": 1538102752,
          "createdSince": "8 months ago",
          "name": "The Communist's Daughter",
          "crossStreet": "at Ossington",
          "city": "Toronto",
          "state": "ON",
          "postalCode": "M6J 1X4",
          "location": { "lat": 43.64936167997857, "lng": -79.42096310360856 },
          "comments": []
        }
      ],
      "count": 5
    },
    {
      "startDate": "2018-10-08T08:02:01.000Z",
      "center": { "lat": "53.360000", "lng": "-6.250964" },
      "endDate": "2018-10-12T23:24:02.000Z",
      "start": "October 8, 2018",
      "end": "October 12, 2018",
      "range": "10/08 to 10/12",
      "city": "Dublin",
      "state": "Dublin City",
      "checkins": [
        {
          "created": "2018-10-08T08:02:01.000Z",
          "id": "5bbb0ef916fa04002c00f42e",
          "createdDate": "Mon, Oct 8th, 2018",
          "createdTime": "9:02am",
          "createdEpoch": 1538985721,
          "createdSince": "7 months ago",
          "name": "Dublin Airport (DUB)",
          "crossStreet": "Swords Rd",
          "city": "Dublin",
          "postalCode": "K67",
          "location": { "lat": 53.42683419309156, "lng": -6.243925094604492 },
          "photos": [],
          "comments": []
        },
        {
          "created": "2018-10-08T08:47:28.000Z",
          "id": "5bbb19a0a87921003953a213",
          "createdDate": "Mon, Oct 8th, 2018",
          "createdTime": "9:47am",
          "createdEpoch": 1538988448,
          "createdSince": "7 months ago",
          "name": "Dublin Airport (DUB)",
          "crossStreet": "Swords Rd",
          "city": "Dublin",
          "postalCode": "K67",
          "location": { "lat": 53.42683419309156, "lng": -6.243925094604492 },
          "photos": [],
          "comments": []
        },
        {
          "created": "2018-10-09T18:56:44.000Z",
          "id": "5bbcf9ec9ef8ef002c5df1d0",
          "createdDate": "Tue, Oct 9th, 2018",
          "createdTime": "7:56pm",
          "createdEpoch": 1539111404,
          "createdSince": "7 months ago",
          "name": "Asador",
          "crossStreet": "Haddington Road",
          "city": "Dublin",
          "state": "Dublin City",
          "postalCode": "Dublin 4",
          "location": { "lat": 53.334621, "lng": -6.243826 },
          "photos": [],
          "comments": []
        },
        {
          "created": "2018-10-12T11:21:11.000Z",
          "id": "5bc083a70ff4f9003a7c6b9f",
          "createdDate": "Fri, Oct 12th, 2018",
          "createdTime": "12:21pm",
          "createdEpoch": 1539343271,
          "createdSince": "7 months ago",
          "name": "Clayton Hotel Ballsbridge",
          "city": "Dublin",
          "state": "Dublin City",
          "postalCode": "4",
          "location": { "lat": 53.325868558816374, "lng": -6.224791752449134 },
          "photos": [],
          "comments": []
        },
        {
          "created": "2018-10-12T13:25:22.000Z",
          "id": "5bc0a0c235811b002cede8bb",
          "createdDate": "Fri, Oct 12th, 2018",
          "createdTime": "2:25pm",
          "createdEpoch": 1539350722,
          "createdSince": "7 months ago",
          "name": "Avis Car Hire Returns Dublin Airport",
          "crossStreet": "DUB Airport",
          "city": "Dublin Airport",
          "postalCode": "K67 W2R4",
          "location": { "lat": 53.42132369261606, "lng": -6.224415587551205 },
          "photos": [],
          "comments": []
        },
        {
          "created": "2018-10-12T14:17:13.000Z",
          "id": "5bc0ace989b06a002c49d45d",
          "createdDate": "Fri, Oct 12th, 2018",
          "createdTime": "3:17pm",
          "createdEpoch": 1539353833,
          "createdSince": "7 months ago",
          "name": "The Croke Park Hotel",
          "city": "Dublin",
          "state": "Dublin City",
          "postalCode": "3",
          "location": { "lat": 53.360639978489495, "lng": -6.253779301903922 },
          "photos": [],
          "comments": []
        },
        {
          "created": "2018-10-12T15:10:56.000Z",
          "id": "5bc0b98067af3a002b7a0d6a",
          "createdDate": "Fri, Oct 12th, 2018",
          "createdTime": "4:10pm",
          "createdEpoch": 1539357056,
          "createdSince": "7 months ago",
          "name": "Hard Rock Cafe Dublin",
          "city": "Dublin",
          "state": "Dublin City",
          "postalCode": "D02 NW56",
          "location": { "lat": 53.345878067909446, "lng": -6.260866414103475 },
          "comments": []
        },
        {
          "created": "2018-10-12T15:29:13.000Z",
          "id": "5bc0bdc9911fc4002cf426e3",
          "createdDate": "Fri, Oct 12th, 2018",
          "createdTime": "4:29pm",
          "createdEpoch": 1539358153,
          "createdSince": "7 months ago",
          "name": "The Palace Bar",
          "city": "Dublin",
          "state": "Dublin City",
          "postalCode": "2",
          "location": { "lat": 53.3458349378377, "lng": -6.259587750718426 },
          "comments": []
        },
        {
          "created": "2018-10-12T17:31:59.000Z",
          "id": "5bc0da8f598e64002cebcb83",
          "createdDate": "Fri, Oct 12th, 2018",
          "createdTime": "6:31pm",
          "createdEpoch": 1539365519,
          "createdSince": "7 months ago",
          "name": "Peterson of Dublin",
          "city": "Dublin",
          "state": "Dublin City",
          "postalCode": "2",
          "location": { "lat": 53.343270949411966, "lng": -6.259177524450997 },
          "comments": []
        },
        {
          "created": "2018-10-12T17:32:29.000Z",
          "id": "5bc0daada30619002c3c0b52",
          "createdDate": "Fri, Oct 12th, 2018",
          "createdTime": "6:32pm",
          "createdEpoch": 1539365549,
          "createdSince": "7 months ago",
          "name": "Aran Sweater Market",
          "location": { "lat": 53.34393495793005, "lng": -6.259296855972148 },
          "comments": []
        },
        {
          "created": "2018-10-12T17:32:59.000Z",
          "id": "5bc0dacb419a9e002b1d7a3d",
          "createdDate": "Fri, Oct 12th, 2018",
          "createdTime": "6:32pm",
          "createdEpoch": 1539365579,
          "createdSince": "7 months ago",
          "name": "Bailey Bar Dublin",
          "city": "Dublin",
          "state": "Dublin City",
          "postalCode": "2",
          "location": { "lat": 53.341963651257714, "lng": -6.259444794513737 },
          "comments": []
        },
        {
          "created": "2018-10-12T18:07:42.000Z",
          "id": "5bc0e2ee9e3b65002ce4dba2",
          "createdDate": "Fri, Oct 12th, 2018",
          "createdTime": "7:07pm",
          "createdEpoch": 1539367662,
          "createdSince": "7 months ago",
          "name": "Kehoe's",
          "city": "Dublin",
          "state": "Dublin City",
          "postalCode": "2",
          "location": { "lat": 53.341143073712324, "lng": -6.259436503698157 },
          "comments": []
        },
        {
          "created": "2018-10-12T18:39:55.000Z",
          "id": "5bc0ea7bb9b37b002c4f997d",
          "createdDate": "Fri, Oct 12th, 2018",
          "createdTime": "7:39pm",
          "createdEpoch": 1539369595,
          "createdSince": "7 months ago",
          "name": "La Cave Wine Bar",
          "city": "Dublin",
          "state": "Dublin City",
          "postalCode": "2",
          "location": { "lat": 53.341118114213074, "lng": -6.259603809296415 },
          "photos": [],
          "comments": []
        },
        {
          "created": "2018-10-12T20:23:01.000Z",
          "id": "5bc102a586f4cc0039dcf7dd",
          "createdDate": "Fri, Oct 12th, 2018",
          "createdTime": "9:23pm",
          "createdEpoch": 1539375781,
          "createdSince": "7 months ago",
          "name": "Peruke & Periwig",
          "city": "Dublin",
          "state": "Dublin City",
          "postalCode": "2",
          "location": { "lat": 53.34008607089172, "lng": -6.25854214051159 },
          "photos": [],
          "comments": []
        },
        {
          "created": "2018-10-12T23:24:02.000Z",
          "id": "5bc12d12f0b490002c73b786",
          "createdDate": "Sat, Oct 13th, 2018",
          "createdTime": "12:24am",
          "createdEpoch": 1539386642,
          "createdSince": "7 months ago",
          "name": "The Croke Park Hotel",
          "city": "Dublin",
          "state": "Dublin City",
          "postalCode": "3",
          "location": { "lat": 53.360639978489495, "lng": -6.253779301903922 },
          "photos": [],
          "comments": []
        }
      ],
      "count": 15
    },
    {
      "startDate": "2018-10-14T08:16:23.000Z",
      "center": { "lat": "53.273813", "lng": "-9.053664" },
      "endDate": "2018-10-14T09:55:23.000Z",
      "start": "October 14, 2018",
      "end": "October 14, 2018",
      "range": "10/14",
      "city": "Galway",
      "state": "Co Galway",
      "checkins": [
        {
          "created": "2018-10-14T08:16:23.000Z",
          "id": "5bc2fb57dee770002c0c003d",
          "createdDate": "Sun, Oct 14th, 2018",
          "createdTime": "9:16am",
          "createdEpoch": 1539504983,
          "createdSince": "7 months ago",
          "name": "Galway Harbour",
          "city": "Galway",
          "state": "Co Galway",
          "location": { "lat": 53.27095046107717, "lng": -9.050962170185707 },
          "photos": [],
          "comments": []
        },
        {
          "created": "2018-10-14T08:25:42.000Z",
          "id": "5bc2fd86396de00039140fa6",
          "createdDate": "Sun, Oct 14th, 2018",
          "createdTime": "9:25am",
          "createdEpoch": 1539505542,
          "createdSince": "7 months ago",
          "name": "Galway Cathedral",
          "city": "Galway",
          "state": "Co Galway",
          "location": { "lat": 53.27522234786936, "lng": -9.057583808898926 },
          "photos": [],
          "comments": []
        },
        {
          "created": "2018-10-14T09:07:35.000Z",
          "id": "5bc30757b3c961002c794ff4",
          "createdDate": "Sun, Oct 14th, 2018",
          "createdTime": "10:07am",
          "createdEpoch": 1539508055,
          "createdSince": "7 months ago",
          "name": "The Browne Doorway",
          "city": "Galway",
          "state": "Co Galway",
          "location": { "lat": 53.27477630954029, "lng": -9.049725968225495 },
          "photos": [],
          "comments": []
        },
        {
          "created": "2018-10-14T09:21:18.000Z",
          "id": "5bc30a8e1af852002c2e0de2",
          "createdDate": "Sun, Oct 14th, 2018",
          "createdTime": "10:21am",
          "createdEpoch": 1539508878,
          "createdSince": "7 months ago",
          "name": "Galway Market",
          "city": "Galway",
          "state": "Co Galway",
          "location": { "lat": 53.27251657920377, "lng": -9.054191017582502 },
          "photos": [],
          "comments": []
        },
        {
          "created": "2018-10-14T09:55:23.000Z",
          "id": "5bc3128be65d0c002c8ba72f",
          "createdDate": "Sun, Oct 14th, 2018",
          "createdTime": "10:55am",
          "createdEpoch": 1539510923,
          "createdSince": "7 months ago",
          "name": "Salmon Weir Bridge",
          "city": "Galway",
          "state": "Co Galway",
          "location": { "lat": 53.2756003066975, "lng": -9.05585684347668 },
          "photos": [],
          "comments": []
        }
      ],
      "count": 5
    },
    {
      "startDate": "2018-10-14T11:31:36.000Z",
      "center": { "lat": "52.966751", "lng": "-9.347482" },
      "endDate": "2018-10-14T16:36:19.000Z",
      "start": "October 14, 2018",
      "end": "October 14, 2018",
      "range": "10/14",
      "city": "Doolin",
      "state": "Co Clare",
      "checkins": [
        {
          "created": "2018-10-14T11:31:36.000Z",
          "id": "5bc32918d0a149002cdd99d5",
          "createdDate": "Sun, Oct 14th, 2018",
          "createdTime": "12:31pm",
          "createdEpoch": 1539516696,
          "createdSince": "7 months ago",
          "name": "Cliffs of Moher Visitor Centre",
          "city": "Liscannor",
          "state": "Co Clare",
          "location": { "lat": 52.97173809060293, "lng": -9.426334490217835 },
          "photos": [],
          "comments": []
        },
        {
          "created": "2018-10-14T12:24:03.000Z",
          "id": "5bc33563bf3d4e00255e6e00",
          "createdDate": "Sun, Oct 14th, 2018",
          "createdTime": "1:24pm",
          "createdEpoch": 1539519843,
          "createdSince": "7 months ago",
          "name": "Cliffs of Moher",
          "city": "Doolin",
          "state": "Co Clare",
          "location": { "lat": 52.971782125452904, "lng": -9.426399102838305 },
          "photos": [],
          "comments": []
        },
        {
          "created": "2018-10-14T12:35:56.000Z",
          "id": "5bc3382ca4ba7c002c79fbb1",
          "createdDate": "Sun, Oct 14th, 2018",
          "createdTime": "1:35pm",
          "createdEpoch": 1539520556,
          "createdSince": "7 months ago",
          "name": "Cliffs of Moher Visitor Centre",
          "city": "Liscannor",
          "state": "Co Clare",
          "location": { "lat": 52.97173809060293, "lng": -9.426334490217835 },
          "photos": [],
          "comments": []
        },
        {
          "created": "2018-10-14T13:05:57.000Z",
          "id": "5bc33f353fcee8002c3d1ee3",
          "createdDate": "Sun, Oct 14th, 2018",
          "createdTime": "2:05pm",
          "createdEpoch": 1539522357,
          "createdSince": "7 months ago",
          "name": "Gus O'Connor's",
          "city": "Doolin",
          "state": "Co Clare",
          "location": { "lat": 53.01246026119715, "lng": -9.386316073499769 },
          "photos": [],
          "comments": []
        },
        {
          "created": "2018-10-14T13:49:05.000Z",
          "id": "5bc349513e6741002c8f78fe",
          "createdDate": "Sun, Oct 14th, 2018",
          "createdTime": "2:49pm",
          "createdEpoch": 1539524945,
          "createdSince": "7 months ago",
          "name": "Doolin Pier",
          "city": "Doolin",
          "state": "Co Clare",
          "location": { "lat": 53.01508107884614, "lng": -9.404634273622001 },
          "photos": [],
          "comments": []
        },
        {
          "created": "2018-10-14T16:36:19.000Z",
          "id": "5bc370832a7ab6002c3c4e77",
          "createdDate": "Sun, Oct 14th, 2018",
          "createdTime": "5:36pm",
          "createdEpoch": 1539534979,
          "createdSince": "7 months ago",
          "name": "Donnellan's Centra",
          "city": "Ennis",
          "state": "Co Clare",
          "location": { "lat": 52.857145112752804, "lng": -9.01584337567595 },
          "photos": [],
          "comments": []
        }
      ],
      "count": 6
    },
    {
      "startDate": "2018-10-14T19:54:51.000Z",
      "center": { "lat": "53.380368", "lng": "-6.257175" },
      "endDate": "2018-10-16T08:17:59.000Z",
      "start": "October 14, 2018",
      "end": "October 16, 2018",
      "range": "10/14 to 10/16",
      "city": "Dublin",
      "state": "Dublin City",
      "checkins": [
        {
          "created": "2018-10-14T19:54:51.000Z",
          "id": "5bc39f0bcabcff002cfa398c",
          "createdDate": "Sun, Oct 14th, 2018",
          "createdTime": "8:54pm",
          "createdEpoch": 1539546891,
          "createdSince": "7 months ago",
          "name": "The Croke Park Hotel",
          "city": "Dublin",
          "state": "Dublin City",
          "postalCode": "3",
          "location": { "lat": 53.360639978489495, "lng": -6.253779301903922 },
          "photos": [],
          "comments": []
        },
        {
          "created": "2018-10-15T10:41:28.000Z",
          "id": "5bc46ed87564f7002cd5503b",
          "createdDate": "Mon, Oct 15th, 2018",
          "createdTime": "11:41am",
          "createdEpoch": 1539600088,
          "createdSince": "7 months ago",
          "name": "The Brazen Head",
          "city": "Dublin",
          "state": "Dublin City",
          "postalCode": "8",
          "location": { "lat": 53.344981786479565, "lng": -6.2763350556607875 },
          "photos": [],
          "comments": []
        },
        {
          "created": "2018-10-15T12:37:01.000Z",
          "id": "5bc489ed418686002c8f3f95",
          "createdDate": "Mon, Oct 15th, 2018",
          "createdTime": "1:37pm",
          "createdEpoch": 1539607021,
          "createdSince": "7 months ago",
          "name": "Trinity College Old Library & The Book of Kells Exhibition",
          "city": "Dublin",
          "state": "Dublin City",
          "postalCode": "2",
          "location": { "lat": 53.34369228474104, "lng": -6.256907495689873 },
          "photos": [],
          "comments": []
        },
        {
          "created": "2018-10-15T13:26:04.000Z",
          "id": "5bc4956cf0b490002c2d03f2",
          "createdDate": "Mon, Oct 15th, 2018",
          "createdTime": "2:26pm",
          "createdEpoch": 1539609964,
          "createdSince": "7 months ago",
          "name": "Guinness Academy",
          "city": "Dublin",
          "state": "Dublin City",
          "postalCode": "8",
          "location": { "lat": 53.341941701297735, "lng": -6.286681947553234 },
          "photos": [],
          "comments": []
        },
        {
          "created": "2018-10-15T15:27:42.000Z",
          "id": "5bc4b1ee12f0a9002c19e1a4",
          "createdDate": "Mon, Oct 15th, 2018",
          "createdTime": "4:27pm",
          "createdEpoch": 1539617262,
          "createdSince": "7 months ago",
          "name": "Guinness Storehouse",
          "city": "Dublin",
          "state": "Dublin City",
          "postalCode": "8",
          "location": { "lat": 53.3418895355902, "lng": -6.286733803765022 },
          "photos": [],
          "comments": []
        },
        {
          "created": "2018-10-15T16:33:55.000Z",
          "id": "5bc4c173ff030600394c97ee",
          "createdDate": "Mon, Oct 15th, 2018",
          "createdTime": "5:33pm",
          "createdEpoch": 1539621235,
          "createdSince": "7 months ago",
          "name": "Jameson Distillery Bow St.",
          "crossStreet": "at Duck Ln",
          "city": "Dublin",
          "state": "Dublin City",
          "postalCode": "7",
          "location": { "lat": 53.34812478051833, "lng": -6.2770742783473175 },
          "photos": [],
          "comments": []
        },
        {
          "created": "2018-10-15T18:43:04.000Z",
          "id": "5bc4dfb815173e002c335681",
          "createdDate": "Mon, Oct 15th, 2018",
          "createdTime": "7:43pm",
          "createdEpoch": 1539628984,
          "createdSince": "7 months ago",
          "name": "The Croke Park Hotel",
          "city": "Dublin",
          "state": "Dublin City",
          "postalCode": "3",
          "location": { "lat": 53.360639978489495, "lng": -6.253779301903922 },
          "photos": [],
          "comments": []
        },
        {
          "created": "2018-10-16T04:55:50.000Z",
          "id": "5bc56f56f427de002cd94350",
          "createdDate": "Tue, Oct 16th, 2018",
          "createdTime": "5:55am",
          "createdEpoch": 1539665750,
          "createdSince": "7 months ago",
          "name": "Avis Car Hire Returns Dublin Airport",
          "crossStreet": "DUB Airport",
          "city": "Dublin Airport",
          "postalCode": "K67 W2R4",
          "location": { "lat": 53.42132369261606, "lng": -6.224415587551205 },
          "photos": [],
          "comments": []
        },
        {
          "created": "2018-10-16T05:09:31.000Z",
          "id": "5bc5728b054e29002c51b8dd",
          "createdDate": "Tue, Oct 16th, 2018",
          "createdTime": "6:09am",
          "createdEpoch": 1539666571,
          "createdSince": "7 months ago",
          "name": "Terminal 2",
          "city": "Dublin",
          "location": { "lat": 53.426662046715016, "lng": -6.2397070545712445 },
          "photos": [],
          "comments": []
        },
        {
          "created": "2018-10-16T06:02:43.000Z",
          "id": "5bc57f03ba57b4002c79b67e",
          "createdDate": "Tue, Oct 16th, 2018",
          "createdTime": "7:02am",
          "createdEpoch": 1539669763,
          "createdSince": "7 months ago",
          "name": "U.S. Customs and Border Protection (CBP) Preclearance",
          "city": "Dublin",
          "location": { "lat": 53.42483047538456, "lng": -6.241375557737957 },
          "photos": [],
          "comments": []
        },
        {
          "created": "2018-10-16T06:45:31.000Z",
          "id": "5bc5890b86f4cc002c7c8149",
          "createdDate": "Tue, Oct 16th, 2018",
          "createdTime": "7:45am",
          "createdEpoch": 1539672331,
          "createdSince": "7 months ago",
          "name": "Lavazza Espression",
          "crossStreet": "DUB Airport",
          "city": "Swords",
          "location": { "lat": 53.422831787758994, "lng": -6.245216821270691 },
          "photos": [],
          "comments": []
        },
        {
          "created": "2018-10-16T08:17:59.000Z",
          "id": "5bc59eb7ad1789002c90d776",
          "createdDate": "Tue, Oct 16th, 2018",
          "createdTime": "3:17am",
          "createdEpoch": 1539677879,
          "createdSince": "7 months ago",
          "name": "Dublin Airport (DUB)",
          "crossStreet": "Swords Rd",
          "city": "Dublin",
          "postalCode": "K67",
          "location": { "lat": 53.42683419309156, "lng": -6.243925094604492 },
          "photos": [],
          "comments": []
        }
      ],
      "count": 12
    },
    {
      "startDate": "2018-10-28T16:01:41.000Z",
      "center": { "lat": "39.947628", "lng": "-75.162830" },
      "endDate": "2018-10-29T14:07:34.000Z",
      "start": "October 28, 2018",
      "end": "October 29, 2018",
      "range": "10/28 to 10/29",
      "city": "Philadelphia",
      "state": "PA",
      "checkins": [
        {
          "created": "2018-10-28T16:01:41.000Z",
          "id": "5bd5dd655c6838002cbd0f43",
          "createdDate": "Sun, Oct 28th, 2018",
          "createdTime": "12:01pm",
          "createdEpoch": 1540742501,
          "createdSince": "7 months ago",
          "name": "Philadelphia International Airport (PHL)",
          "city": "Philadelphia",
          "state": "PA",
          "postalCode": "19153",
          "location": { "lat": 39.8761581242692, "lng": -75.24323158334602 },
          "photos": [],
          "comments": []
        },
        {
          "created": "2018-10-28T16:41:59.000Z",
          "id": "5bd5e6d78496ca002c22a0d4",
          "createdDate": "Sun, Oct 28th, 2018",
          "createdTime": "12:41pm",
          "createdEpoch": 1540744919,
          "createdSince": "7 months ago",
          "name": "Race Street Pier",
          "crossStreet": "at Race St",
          "city": "Philadelphia",
          "state": "PA",
          "postalCode": "19106",
          "location": { "lat": 39.95311727224621, "lng": -75.13878107070923 },
          "photos": [],
          "comments": []
        },
        {
          "created": "2018-10-28T18:00:20.000Z",
          "id": "5bd5f934dbde1100250c6d84",
          "createdDate": "Sun, Oct 28th, 2018",
          "createdTime": "2:00pm",
          "createdEpoch": 1540749620,
          "createdSince": "7 months ago",
          "name": "Hard Rock Cafe Philadelphia",
          "crossStreet": "at N 12th St",
          "city": "Philadelphia",
          "state": "PA",
          "postalCode": "19107",
          "location": { "lat": 39.95212105124792, "lng": -75.15962265339033 },
          "photos": [],
          "comments": []
        },
        {
          "created": "2018-10-28T18:10:35.000Z",
          "id": "5bd5fb9b9d7468002cf880c8",
          "createdDate": "Sun, Oct 28th, 2018",
          "createdTime": "2:10pm",
          "createdEpoch": 1540750235,
          "createdSince": "7 months ago",
          "name": "Bud & Marilyn's",
          "crossStreet": "at 13th St",
          "city": "Philadelphia",
          "state": "PA",
          "postalCode": "19107",
          "location": { "lat": 39.947792141419676, "lng": -75.16225657280376 },
          "photos": [],
          "comments": []
        },
        {
          "created": "2018-10-28T20:28:04.000Z",
          "id": "5bd61bd4135b39002c76a289",
          "createdDate": "Sun, Oct 28th, 2018",
          "createdTime": "4:28pm",
          "createdEpoch": 1540758484,
          "createdSince": "7 months ago",
          "name": "Wyndham Philadelphia Historic District",
          "city": "Philadelphia",
          "state": "PA",
          "postalCode": "19106",
          "location": { "lat": 39.95197962390767, "lng": -75.14700539756147 },
          "photos": [],
          "comments": []
        },
        {
          "created": "2018-10-29T01:04:21.000Z",
          "id": "5bd65c9535d3fc002c11ac03",
          "createdDate": "Sun, Oct 28th, 2018",
          "createdTime": "9:04pm",
          "createdEpoch": 1540775061,
          "createdSince": "7 months ago",
          "name": "Cheu Noodle Bar Fishtown",
          "city": "Philadelphia",
          "state": "PA",
          "postalCode": "19125",
          "location": { "lat": 39.972292301802526, "lng": -75.13436373725699 },
          "photos": [],
          "comments": []
        },
        {
          "created": "2018-10-29T01:50:49.000Z",
          "id": "5bd6677973fe25002c626480",
          "createdDate": "Sun, Oct 28th, 2018",
          "createdTime": "9:50pm",
          "createdEpoch": 1540777849,
          "createdSince": "7 months ago",
          "name": "Wm. Mulherin's Sons",
          "city": "Philadelphia",
          "state": "PA",
          "postalCode": "19122",
          "location": { "lat": 39.97180489879118, "lng": -75.13512193388114 },
          "photos": [],
          "comments": []
        },
        {
          "created": "2018-10-29T14:07:34.000Z",
          "id": "5bd71426e0c0c9002c263858",
          "createdDate": "Mon, Oct 29th, 2018",
          "createdTime": "10:07am",
          "createdEpoch": 1540822054,
          "createdSince": "7 months ago",
          "name": "30th Street Station (ZFV)",
          "crossStreet": "at N 30th St",
          "city": "Philadelphia",
          "state": "PA",
          "postalCode": "19104",
          "location": { "lat": 39.95571762535726, "lng": -75.18215137753123 },
          "photos": [],
          "comments": []
        }
      ],
      "count": 8
    },
    {
      "startDate": "2018-10-29T18:13:01.000Z",
      "center": { "lat": "40.728792", "lng": "-74.009896" },
      "endDate": "2018-11-01T23:27:19.000Z",
      "start": "October 29, 2018",
      "end": "November 1, 2018",
      "range": "10/29 to 11/01",
      "city": "New York",
      "state": "NY",
      "checkins": [
        {
          "created": "2018-10-29T18:13:01.000Z",
          "id": "5bd74dad3e6741002ce7467a",
          "createdDate": "Mon, Oct 29th, 2018",
          "createdTime": "2:13pm",
          "createdEpoch": 1540836781,
          "createdSince": "7 months ago",
          "name": "amika : styleblow",
          "city": "Brooklyn",
          "state": "NY",
          "postalCode": "11249",
          "location": { "lat": 40.71811787400376, "lng": -73.96206167250915 },
          "photos": [],
          "comments": []
        },
        {
          "created": "2018-10-29T19:25:17.000Z",
          "id": "5bd75e9d5c6838002caebc89",
          "createdDate": "Mon, Oct 29th, 2018",
          "createdTime": "3:25pm",
          "createdEpoch": 1540841117,
          "createdSince": "7 months ago",
          "name": "Diviera Drive",
          "crossStreet": "at N 7th St",
          "city": "Brooklyn",
          "state": "NY",
          "postalCode": "11249",
          "location": { "lat": 40.71845798223301, "lng": -73.95893680803374 },
          "photos": [],
          "comments": []
        },
        {
          "created": "2018-10-30T02:32:20.000Z",
          "id": "5bd7c2b44f0e58002ce85ef3",
          "createdDate": "Mon, Oct 29th, 2018",
          "createdTime": "10:32pm",
          "createdEpoch": 1540866740,
          "createdSince": "7 months ago",
          "name": "Music Hall of Williamsburg",
          "shout": "The Moth GrandSLAM",
          "crossStreet": "at Kent Ave",
          "city": "Brooklyn",
          "state": "NY",
          "postalCode": "11249",
          "location": { "lat": 40.71924372755579, "lng": -73.96167907297911 },
          "comments": []
        },
        {
          "created": "2018-10-30T02:32:47.000Z",
          "id": "5bd7c2cf1ffed70039d51091",
          "createdDate": "Mon, Oct 29th, 2018",
          "createdTime": "10:32pm",
          "createdEpoch": 1540866767,
          "createdSince": "7 months ago",
          "name": "Cafe Colette",
          "shout": "A bite to eat after the show",
          "crossStreet": "at N 9th St",
          "city": "Brooklyn",
          "state": "NY",
          "postalCode": "11249",
          "location": { "lat": 40.719660559376436, "lng": -73.9578077553255 },
          "photos": [],
          "comments": []
        },
        {
          "created": "2018-10-30T18:54:18.000Z",
          "id": "5bd8a8da112c6c002ce962f8",
          "createdDate": "Tue, Oct 30th, 2018",
          "createdTime": "2:54pm",
          "createdEpoch": 1540925658,
          "createdSince": "7 months ago",
          "name": "The Meatball Shop",
          "crossStreet": "btwn W 22nd St & W 23rd St",
          "city": "New York",
          "state": "NY",
          "postalCode": "10011",
          "location": { "lat": 40.74598847169323, "lng": -74.0016855226974 },
          "photos": [],
          "comments": []
        },
        {
          "created": "2018-10-30T20:43:29.000Z",
          "id": "5bd8c271deb4950025b8aa20",
          "createdDate": "Tue, Oct 30th, 2018",
          "createdTime": "4:43pm",
          "createdEpoch": 1540932209,
          "createdSince": "7 months ago",
          "name": "New York Penn Station",
          "crossStreet": "btwn W 31st & W 33rd St",
          "city": "New York",
          "state": "NY",
          "postalCode": "10001",
          "location": { "lat": 40.750551229286685, "lng": -73.99296296395386 },
          "photos": [],
          "comments": []
        },
        {
          "created": "2018-10-31T00:51:41.000Z",
          "id": "5bd8fc9d8a4cf5002cdef2e9",
          "createdDate": "Tue, Oct 30th, 2018",
          "createdTime": "8:51pm",
          "createdEpoch": 1540947101,
          "createdSince": "7 months ago",
          "name": "The Big House",
          "city": "New York",
          "state": "NY",
          "location": { "lat": 40.74277689101572, "lng": -74.00063278107605 },
          "photos": [],
          "comments": []
        },
        {
          "created": "2018-10-31T00:52:00.000Z",
          "id": "5bd8fcb081a0ea002c526309",
          "createdDate": "Tue, Oct 30th, 2018",
          "createdTime": "8:52pm",
          "createdEpoch": 1540947120,
          "createdSince": "7 months ago",
          "name": "Tavola",
          "crossStreet": "at W 38th St",
          "city": "New York",
          "state": "NY",
          "postalCode": "10018",
          "location": { "lat": 40.75553079277017, "lng": -73.99476881950281 },
          "photos": [],
          "comments": []
        },
        {
          "created": "2018-10-31T03:16:47.000Z",
          "id": "5bd91e9fd69ed000396b548a",
          "createdDate": "Tue, Oct 30th, 2018",
          "createdTime": "11:16pm",
          "createdEpoch": 1540955807,
          "createdSince": "7 months ago",
          "name": "Rudy's Bar & Grill",
          "crossStreet": "btwn W 44th & W 45th St",
          "city": "New York",
          "state": "NY",
          "postalCode": "10036",
          "location": { "lat": 40.7599319591241, "lng": -73.99159047097984 },
          "photos": [],
          "comments": []
        },
        {
          "created": "2018-10-31T04:06:58.000Z",
          "id": "5bd92a62c36588002c32bf84",
          "createdDate": "Wed, Oct 31st, 2018",
          "createdTime": "12:06am",
          "createdEpoch": 1540958818,
          "createdSince": "6 months ago",
          "name": "The Big House",
          "city": "New York",
          "state": "NY",
          "location": { "lat": 40.74277689101572, "lng": -74.00063278107605 },
          "photos": [],
          "comments": []
        },
        {
          "created": "2018-10-31T13:52:49.000Z",
          "id": "5bd9b3b1a2a6ce0039fb5489",
          "createdDate": "Wed, Oct 31st, 2018",
          "createdTime": "9:52am",
          "createdEpoch": 1540993969,
          "createdSince": "6 months ago",
          "name": "Laughing Man Coffee & Tea",
          "shout": "An old favorite before a busy morning.",
          "crossStreet": "btwn Greenwich & Hudson St.",
          "city": "New York",
          "state": "NY",
          "postalCode": "10013",
          "location": { "lat": 40.7173944529165, "lng": -74.01010324607125 },
          "comments": []
        },
        {
          "created": "2018-10-31T14:13:22.000Z",
          "id": "5bd9b882464d65002c1b401f",
          "createdDate": "Wed, Oct 31st, 2018",
          "createdTime": "10:13am",
          "createdEpoch": 1540995202,
          "createdSince": "6 months ago",
          "name": "Two Hands Restaurant & Bar",
          "city": "New York",
          "state": "NY",
          "postalCode": "10013",
          "location": { "lat": 40.71793729407671, "lng": -74.0056947993655 },
          "photos": [],
          "comments": []
        },
        {
          "created": "2018-10-31T15:07:07.000Z",
          "id": "5bd9c51be96d0c002c0c5281",
          "createdDate": "Wed, Oct 31st, 2018",
          "createdTime": "11:07am",
          "createdEpoch": 1540998427,
          "createdSince": "6 months ago",
          "name": "Think Coffee",
          "crossStreet": "Leonard",
          "city": "New York",
          "state": "NY",
          "postalCode": "10013",
          "location": { "lat": 40.71690888950524, "lng": -74.00393447886529 },
          "photos": [],
          "comments": []
        },
        {
          "created": "2018-10-31T16:33:07.000Z",
          "id": "5bd9d9432db4a9002cec343c",
          "createdDate": "Wed, Oct 31st, 2018",
          "createdTime": "12:33pm",
          "createdEpoch": 1541003587,
          "createdSince": "6 months ago",
          "name": "KettleSpace TriBeCa @ Distilled NY",
          "city": "New York",
          "state": "NY",
          "postalCode": "10013",
          "location": { "lat": 40.71884935029375, "lng": -74.00663582356559 },
          "photos": [],
          "comments": []
        },
        {
          "created": "2018-10-31T21:20:00.000Z",
          "id": "5bda1c80e7a237003996770d",
          "createdDate": "Wed, Oct 31st, 2018",
          "createdTime": "5:20pm",
          "createdEpoch": 1541020800,
          "createdSince": "6 months ago",
          "name": "Fraunces Tavern",
          "crossStreet": "at Broad St",
          "city": "New York",
          "state": "NY",
          "postalCode": "10004",
          "location": { "lat": 40.70352594119276, "lng": -74.01139528322373 },
          "photos": [],
          "comments": []
        },
        {
          "created": "2018-11-01T06:19:48.000Z",
          "id": "5bda9b0489b06a002c44e2cb",
          "createdDate": "Thu, Nov 1st, 2018",
          "createdTime": "2:19am",
          "createdEpoch": 1541053188,
          "createdSince": "6 months ago",
          "name": "The Big House",
          "city": "New York",
          "state": "NY",
          "location": { "lat": 40.74277689101572, "lng": -74.00063278107605 },
          "photos": [],
          "comments": []
        },
        {
          "created": "2018-11-01T17:09:14.000Z",
          "id": "5bdb333a0868a2002cb6058d",
          "createdDate": "Thu, Nov 1st, 2018",
          "createdTime": "1:09pm",
          "createdEpoch": 1541092154,
          "createdSince": "6 months ago",
          "name": "The Grey Dog - Chelsea",
          "crossStreet": "btwn 7th & 8th Ave",
          "city": "New York",
          "state": "NY",
          "postalCode": "10011",
          "location": { "lat": 40.740602, "lng": -74.000698 },
          "photos": [],
          "comments": []
        },
        {
          "created": "2018-11-01T18:03:27.000Z",
          "id": "5bdb3fefa35f46002572288e",
          "createdDate": "Thu, Nov 1st, 2018",
          "createdTime": "2:03pm",
          "createdEpoch": 1541095407,
          "createdSince": "6 months ago",
          "name": "Eataly",
          "crossStreet": "at W 23rd St",
          "city": "New York",
          "state": "NY",
          "postalCode": "10010",
          "location": { "lat": 40.74198696405861, "lng": -73.98991319280194 },
          "photos": [],
          "comments": []
        },
        {
          "created": "2018-11-01T19:29:04.000Z",
          "id": "5bdb54006e4650002c598a8e",
          "createdDate": "Thu, Nov 1st, 2018",
          "createdTime": "3:29pm",
          "createdEpoch": 1541100544,
          "createdSince": "6 months ago",
          "name": "The Big House",
          "city": "New York",
          "state": "NY",
          "location": { "lat": 40.74277689101572, "lng": -74.00063278107605 },
          "photos": [],
          "comments": []
        },
        {
          "created": "2018-11-01T23:10:37.000Z",
          "id": "5bdb87edd48ec1002c381604",
          "createdDate": "Thu, Nov 1st, 2018",
          "createdTime": "7:10pm",
          "createdEpoch": 1541113837,
          "createdSince": "6 months ago",
          "name": "TSA Pre-Check",
          "crossStreet": "EWR Airport",
          "city": "Newark",
          "state": "NJ",
          "location": { "lat": 40.69558032606257, "lng": -74.17724578891813 },
          "photos": [],
          "comments": []
        },
        {
          "created": "2018-11-01T23:27:19.000Z",
          "id": "5bdb8bd77a0eff00327bf5b9",
          "createdDate": "Thu, Nov 1st, 2018",
          "createdTime": "7:27pm",
          "createdEpoch": 1541114839,
          "createdSince": "6 months ago",
          "name": "Newark Liberty International Airport (EWR)",
          "crossStreet": "at Express Rd",
          "city": "Newark",
          "state": "NJ",
          "postalCode": "07114",
          "location": { "lat": 40.692971458363075, "lng": -74.17799234390257 },
          "photos": [],
          "comments": []
        }
      ],
      "count": 21
    },
    {
      "startDate": "2018-11-02T19:34:44.000Z",
      "center": { "lat": "30.289863", "lng": "-97.730100" },
      "endDate": "2018-11-06T16:10:44.000Z",
      "start": "November 2, 2018",
      "end": "November 6, 2018",
      "range": "11/02 to 11/03",
      "city": "Austin",
      "state": "TX",
      "checkins": [
        {
          "created": "2018-11-02T19:34:44.000Z",
          "id": "5bdca6d41ffed7002c32a246",
          "createdDate": "Fri, Nov 2nd, 2018",
          "createdTime": "2:34pm",
          "createdEpoch": 1541187284,
          "createdSince": "6 months ago",
          "name": "Austin Bergstrom International Airport (AUS)",
          "crossStreet": "at Texas Hwy 71",
          "city": "Austin",
          "state": "TX",
          "postalCode": "78719",
          "location": { "lat": 30.202299564532023, "lng": -97.66764701003774 },
          "photos": [],
          "comments": []
        },
        {
          "created": "2018-11-02T20:27:09.000Z",
          "id": "5bdcb31d037be1002c61382b",
          "createdDate": "Fri, Nov 2nd, 2018",
          "createdTime": "3:27pm",
          "createdEpoch": 1541190429,
          "createdSince": "6 months ago",
          "name": "LaVaca Street Bar Rock Rose",
          "crossStreet": "Cherry Sage",
          "city": "Austin",
          "state": "TX",
          "postalCode": "78758",
          "location": { "lat": 30.40053349279965, "lng": -97.72315179654599 },
          "photos": [],
          "comments": []
        },
        {
          "created": "2018-11-03T01:48:58.000Z",
          "id": "5bdcfe8a35811b002c6b3e68",
          "createdDate": "Fri, Nov 2nd, 2018",
          "createdTime": "8:48pm",
          "createdEpoch": 1541209738,
          "createdSince": "6 months ago",
          "name": "La Condesa",
          "crossStreet": "Guadalupe St.",
          "city": "Austin",
          "state": "TX",
          "postalCode": "78701",
          "location": { "lat": 30.265466087707168, "lng": -97.74773380613617 },
          "photos": [],
          "comments": []
        },
        {
          "created": "2018-11-03T05:13:34.000Z",
          "id": "5bdd2e7ecbcdee002c4f9611",
          "createdDate": "Sat, Nov 3rd, 2018",
          "createdTime": "12:13am",
          "createdEpoch": 1541222014,
          "createdSince": "6 months ago",
          "name": "Cedar Door",
          "crossStreet": "at 2nd St",
          "city": "Austin",
          "state": "TX",
          "postalCode": "78701",
          "location": { "lat": 30.26412, "lng": -97.74265 },
          "photos": [],
          "comments": []
        },
        {
          "created": "2018-11-03T16:43:21.000Z",
          "id": "5bddd02967f62b002c2f72a3",
          "createdDate": "Sat, Nov 3rd, 2018",
          "createdTime": "11:43am",
          "createdEpoch": 1541263401,
          "createdSince": "6 months ago",
          "name": "The Domain",
          "crossStreet": "Palm Way",
          "city": "Austin",
          "state": "TX",
          "postalCode": "78758",
          "location": { "lat": 30.4006016, "lng": -97.7251211 },
          "photos": [],
          "comments": []
        },
        {
          "created": "2018-11-03T18:10:29.000Z",
          "id": "5bdde495c8b2fb002c13cc0f",
          "createdDate": "Sat, Nov 3rd, 2018",
          "createdTime": "1:10pm",
          "createdEpoch": 1541268629,
          "createdSince": "6 months ago",
          "name": "Modern Market",
          "city": "Austin",
          "state": "TX",
          "postalCode": "78701",
          "location": { "lat": 30.266568084159132, "lng": -97.74338455928249 },
          "photos": [],
          "comments": []
        },
        {
          "created": "2018-11-03T19:42:57.000Z",
          "id": "5bddfa4131ac6c0039d9d0c2",
          "createdDate": "Sat, Nov 3rd, 2018",
          "createdTime": "2:42pm",
          "createdEpoch": 1541274177,
          "createdSince": "6 months ago",
          "name": "The Driskill Bar",
          "crossStreet": "6th St",
          "city": "Austin",
          "state": "TX",
          "postalCode": "78701",
          "location": { "lat": 30.268605369806615, "lng": -97.74157252361594 },
          "photos": [],
          "comments": []
        },
        {
          "created": "2018-11-03T20:40:28.000Z",
          "id": "5bde07bcd69ed0002cd7cc00",
          "createdDate": "Sat, Nov 3rd, 2018",
          "createdTime": "3:40pm",
          "createdEpoch": 1541277628,
          "createdSince": "6 months ago",
          "name": "Hotel San Jose",
          "crossStreet": "James St.",
          "city": "Austin",
          "state": "TX",
          "postalCode": "78704",
          "location": { "lat": 30.250687665696862, "lng": -97.74956415086605 },
          "photos": [],
          "comments": []
        },
        {
          "created": "2018-11-04T00:36:00.000Z",
          "id": "5bde3ef067af3a002c809744",
          "createdDate": "Sat, Nov 3rd, 2018",
          "createdTime": "7:36pm",
          "createdEpoch": 1541291760,
          "createdSince": "6 months ago",
          "name": "The Greenhouse @ Driftwood",
          "shout": "#mccannyoueven Congrats Joe and Shea!",
          "city": "Driftwood",
          "state": "TX",
          "postalCode": "78619",
          "location": { "lat": 30.1519, "lng": -98.04075 },
          "comments": []
        },
        {
          "created": "2018-11-04T04:31:27.000Z",
          "id": "5bde761f3c858d002c577365",
          "createdDate": "Sat, Nov 3rd, 2018",
          "createdTime": "11:31pm",
          "createdEpoch": 1541305887,
          "createdSince": "6 months ago",
          "name": "Hotel San Jose",
          "crossStreet": "James St.",
          "city": "Austin",
          "state": "TX",
          "postalCode": "78704",
          "location": { "lat": 30.250687665696862, "lng": -97.74956415086605 },
          "photos": [],
          "comments": []
        },
        {
          "created": "2018-11-04T04:45:44.000Z",
          "id": "5bde79788ad62e002cbc1754",
          "createdDate": "Sat, Nov 3rd, 2018",
          "createdTime": "11:45pm",
          "createdEpoch": 1541306744,
          "createdSince": "6 months ago",
          "name": "The Driskill Bar",
          "crossStreet": "6th St",
          "city": "Austin",
          "state": "TX",
          "postalCode": "78701",
          "location": { "lat": 30.268605369806615, "lng": -97.74157252361594 },
          "photos": [],
          "comments": []
        },
        {
          "created": "2018-11-04T19:32:25.000Z",
          "id": "5bdf49493149b9002ca45cd7",
          "createdDate": "Sun, Nov 4th, 2018",
          "createdTime": "1:32pm",
          "createdEpoch": 1541359945,
          "createdSince": "6 months ago",
          "name": "The UPS Store",
          "city": "Austin",
          "state": "TX",
          "postalCode": "78701",
          "location": { "lat": 30.26518889977554, "lng": -97.73821128836056 },
          "photos": [],
          "comments": []
        },
        {
          "created": "2018-11-04T19:40:20.000Z",
          "id": "5bdf4b2466f3cd0039a61178",
          "createdDate": "Sun, Nov 4th, 2018",
          "createdTime": "1:40pm",
          "createdEpoch": 1541360420,
          "createdSince": "6 months ago",
          "name": "JuiceLand",
          "crossStreet": "Congress",
          "city": "Austin",
          "state": "TX",
          "postalCode": "78701",
          "location": { "lat": 30.266037164237066, "lng": -97.7426228165107 },
          "photos": [],
          "comments": []
        },
        {
          "created": "2018-11-04T19:52:54.000Z",
          "id": "5bdf4e16c824ae002caff1d9",
          "createdDate": "Sun, Nov 4th, 2018",
          "createdTime": "1:52pm",
          "createdEpoch": 1541361174,
          "createdSince": "6 months ago",
          "name": "Corner",
          "city": "Austin",
          "state": "TX",
          "postalCode": "78701",
          "location": { "lat": 30.264409963345564, "lng": -97.74392768740654 },
          "photos": [],
          "comments": []
        },
        {
          "created": "2018-11-04T21:31:57.000Z",
          "id": "5bdf654d112c6c002c8f3b40",
          "createdDate": "Sun, Nov 4th, 2018",
          "createdTime": "3:31pm",
          "createdEpoch": 1541367117,
          "createdSince": "6 months ago",
          "name": "The Driskill",
          "city": "Austin",
          "state": "TX",
          "postalCode": "78701",
          "location": { "lat": 30.267840741798675, "lng": -97.74171498680151 },
          "photos": [],
          "comments": []
        },
        {
          "created": "2018-11-04T22:25:15.000Z",
          "id": "5bdf71cb515d6a0025e57d4c",
          "createdDate": "Sun, Nov 4th, 2018",
          "createdTime": "4:25pm",
          "createdEpoch": 1541370315,
          "createdSince": "6 months ago",
          "name": "Whole Foods Market",
          "city": "Austin",
          "state": "TX",
          "postalCode": "78758",
          "location": { "lat": 30.406337373358788, "lng": -97.7202829160926 },
          "photos": [],
          "comments": []
        },
        {
          "created": "2018-11-05T02:27:21.000Z",
          "id": "5bdfaa89bd4009002c1209da",
          "createdDate": "Sun, Nov 4th, 2018",
          "createdTime": "8:27pm",
          "createdEpoch": 1541384841,
          "createdSince": "6 months ago",
          "name": "Barley Swine",
          "city": "Austin",
          "state": "TX",
          "postalCode": "78757",
          "location": { "lat": 30.341255716248515, "lng": -97.73845816423668 },
          "photos": [],
          "comments": []
        },
        {
          "created": "2018-11-05T17:22:58.000Z",
          "id": "5be07c72515d6a00253b69b4",
          "createdDate": "Mon, Nov 5th, 2018",
          "createdTime": "11:22am",
          "createdEpoch": 1541438578,
          "createdSince": "6 months ago",
          "name": "Bee Cave Coffee Co",
          "crossStreet": "Suite 100",
          "city": "Austin",
          "state": "TX",
          "postalCode": "78758",
          "location": { "lat": 30.396567981960278, "lng": -97.72726088514678 },
          "photos": [],
          "comments": []
        },
        {
          "created": "2018-11-06T01:07:28.000Z",
          "id": "5be0e950e97dfb002c5efe3f",
          "createdDate": "Mon, Nov 5th, 2018",
          "createdTime": "7:07pm",
          "createdEpoch": 1541466448,
          "createdSince": "6 months ago",
          "name": "Paul Martin's Austin Grill",
          "crossStreet": "Rock Rose",
          "city": "Austin",
          "state": "TX",
          "postalCode": "78758",
          "location": { "lat": 30.4029773, "lng": -97.72137649999999 },
          "photos": [],
          "comments": []
        },
        {
          "created": "2018-11-06T03:08:03.000Z",
          "id": "5be10593de3bbf002cf4fab8",
          "createdDate": "Mon, Nov 5th, 2018",
          "createdTime": "9:08pm",
          "createdEpoch": 1541473683,
          "createdSince": "6 months ago",
          "name": "Doc B’s",
          "city": "Austin",
          "state": "TX",
          "postalCode": "78758",
          "location": { "lat": 30.402807542202225, "lng": -97.71975027101742 },
          "photos": [],
          "comments": []
        },
        {
          "created": "2018-11-06T15:16:34.000Z",
          "id": "5be1b05235d3fc002cf71562",
          "createdDate": "Tue, Nov 6th, 2018",
          "createdTime": "9:16am",
          "createdEpoch": 1541517394,
          "createdSince": "6 months ago",
          "name": "Bakery Lorraine",
          "city": "Austin",
          "state": "TX",
          "postalCode": "78758",
          "location": { "lat": 30.401648085533573, "lng": -97.7226861144592 },
          "photos": [],
          "comments": []
        },
        {
          "created": "2018-11-06T16:10:44.000Z",
          "id": "5be1bd0415173e002cfc3a2b",
          "createdDate": "Tue, Nov 6th, 2018",
          "createdTime": "10:10am",
          "createdEpoch": 1541520644,
          "createdSince": "6 months ago",
          "name": "Austin Bergstrom International Airport (AUS)",
          "crossStreet": "at Texas Hwy 71",
          "city": "Austin",
          "state": "TX",
          "postalCode": "78719",
          "location": { "lat": 30.202299564532023, "lng": -97.66764701003774 },
          "photos": [],
          "comments": []
        }
      ],
      "count": 22
    },
    {
      "startDate": "2018-12-23T23:02:51.000Z",
      "center": { "lat": "43.250389", "lng": "-79.086915" },
      "endDate": "2018-12-28T18:56:31.000Z",
      "start": "December 23, 2018",
      "end": "December 28, 2018",
      "range": "12/23 to 12/28",
      "city": "Niagara-on-the-Lake",
      "state": "ON",
      "checkins": [
        {
          "created": "2018-12-23T23:02:51.000Z",
          "id": "5c20141bdb2aeb002cb14827",
          "createdDate": "Sun, Dec 23rd, 2018",
          "createdTime": "6:02pm",
          "createdEpoch": 1545606171,
          "createdSince": "5 months ago",
          "name": "Sandtrap Pub & Grill",
          "crossStreet": "at Dorchester St",
          "city": "Niagara-on-the-Lake",
          "state": "ON",
          "postalCode": "L0S 1J0",
          "location": { "lat": 43.254507777739704, "lng": -79.08738900862956 },
          "photos": [],
          "comments": []
        },
        {
          "created": "2018-12-27T20:12:06.000Z",
          "id": "5c2532161acf11002ce769be",
          "createdDate": "Thu, Dec 27th, 2018",
          "createdTime": "3:12pm",
          "createdEpoch": 1545941526,
          "createdSince": "5 months ago",
          "name": "Niagara Oast House Brewers",
          "city": "Niagara-on-the-Lake",
          "state": "ON",
          "postalCode": "L0S 1T0",
          "location": { "lat": 43.240201977928095, "lng": -79.09891441503288 },
          "photos": [],
          "comments": []
        },
        {
          "created": "2018-12-28T18:56:31.000Z",
          "id": "5c2671df5d891b002d703103",
          "createdDate": "Fri, Dec 28th, 2018",
          "createdTime": "1:56pm",
          "createdEpoch": 1546023391,
          "createdSince": "5 months ago",
          "name": "Starbucks",
          "city": "Niagara-on-the-Lake",
          "state": "ON",
          "postalCode": "L0S 1J0",
          "location": { "lat": 43.25645459647076, "lng": -79.07443747469937 },
          "photos": [],
          "comments": []
        }
      ],
      "count": 3
    },
    {
      "startDate": "2019-01-14T20:17:34.000Z",
      "center": { "lat": "37.708158", "lng": "-122.417345" },
      "endDate": "2019-01-14T22:13:41.000Z",
      "start": "January 14, 2019",
      "end": "January 14, 2019",
      "range": "01/14",
      "city": "San Francisco",
      "state": "CA",
      "checkins": [
        {
          "created": "2019-01-14T20:17:34.000Z",
          "id": "5c3cee5e911fc4002c133664",
          "createdDate": "Mon, Jan 14th, 2019",
          "createdTime": "12:17pm",
          "createdEpoch": 1547497054,
          "createdSince": "4 months ago",
          "name": "The Grove",
          "crossStreet": "at Pine St",
          "city": "San Francisco",
          "state": "CA",
          "postalCode": "94115",
          "location": { "lat": 37.788199216846216, "lng": -122.43369419514175 },
          "photos": [],
          "comments": []
        },
        {
          "created": "2019-01-14T22:13:41.000Z",
          "id": "5c3d09953af988002cbdff32",
          "createdDate": "Mon, Jan 14th, 2019",
          "createdTime": "2:13pm",
          "createdEpoch": 1547504021,
          "createdSince": "4 months ago",
          "name": "Rental Car Center",
          "crossStreet": "at W Area Dr",
          "city": "San Francisco",
          "state": "CA",
          "postalCode": "94128",
          "location": { "lat": 37.628115190123616, "lng": -122.40103126321053 },
          "photos": [],
          "comments": []
        }
      ],
      "count": 2
    },
    {
      "startDate": "2019-01-14T23:19:39.000Z",
      "center": { "lat": "37.407417", "lng": "-122.103183" },
      "endDate": "2019-01-19T00:38:21.000Z",
      "start": "January 14, 2019",
      "end": "January 18, 2019",
      "range": "01/14 to 01/18",
      "city": "Mountain View",
      "state": "CA",
      "checkins": [
        {
          "created": "2019-01-14T23:19:39.000Z",
          "id": "5c3d190b67f62b002cbfba7f",
          "createdDate": "Mon, Jan 14th, 2019",
          "createdTime": "3:19pm",
          "createdEpoch": 1547507979,
          "createdSince": "4 months ago",
          "name": "Hilton Garden Inn",
          "city": "Mountain View",
          "state": "CA",
          "postalCode": "94040",
          "location": { "lat": 37.3765227, "lng": -122.061496 },
          "photos": [],
          "comments": []
        },
        {
          "created": "2019-01-15T21:16:40.000Z",
          "id": "5c3e4db8968f310039031aac",
          "createdDate": "Tue, Jan 15th, 2019",
          "createdTime": "1:16pm",
          "createdEpoch": 1547587000,
          "createdSince": "4 months ago",
          "name": "Elastic",
          "crossStreet": "Castro",
          "city": "Mountain View",
          "state": "CA",
          "postalCode": "94040",
          "location": { "lat": 37.38641419400396, "lng": -122.08378385187241 },
          "photos": [],
          "comments": []
        },
        {
          "created": "2019-01-15T23:28:31.000Z",
          "id": "5c3e6c9f780eee002c52e317",
          "createdDate": "Tue, Jan 15th, 2019",
          "createdTime": "3:28pm",
          "createdEpoch": 1547594911,
          "createdSince": "4 months ago",
          "name": "Fry's Electronics",
          "crossStreet": "at Ash St",
          "city": "Palo Alto",
          "state": "CA",
          "postalCode": "94306",
          "location": { "lat": 37.42346983208307, "lng": -122.1368487800233 },
          "photos": [],
          "comments": []
        },
        {
          "created": "2019-01-16T02:28:16.000Z",
          "id": "5c3e96c006fb60002c7a9d45",
          "createdDate": "Tue, Jan 15th, 2019",
          "createdTime": "6:28pm",
          "createdEpoch": 1547605696,
          "createdSince": "4 months ago",
          "name": "The Wine Room",
          "crossStreet": "at University Ave",
          "city": "Palo Alto",
          "state": "CA",
          "postalCode": "94301",
          "location": { "lat": 37.445036967623494, "lng": -122.16184334443031 },
          "photos": [],
          "comments": []
        },
        {
          "created": "2019-01-16T05:08:25.000Z",
          "id": "5c3ebc497a0eff00254eb58f",
          "createdDate": "Tue, Jan 15th, 2019",
          "createdTime": "9:08pm",
          "createdEpoch": 1547615305,
          "createdSince": "4 months ago",
          "name": "Hilton Garden Inn",
          "city": "Mountain View",
          "state": "CA",
          "postalCode": "94040",
          "location": { "lat": 37.3765227, "lng": -122.061496 },
          "photos": [],
          "comments": []
        },
        {
          "created": "2019-01-16T17:45:13.000Z",
          "id": "5c3f6da93b8307002c720a18",
          "createdDate": "Wed, Jan 16th, 2019",
          "createdTime": "9:45am",
          "createdEpoch": 1547660713,
          "createdSince": "4 months ago",
          "name": "Elastic",
          "crossStreet": "Castro",
          "city": "Mountain View",
          "state": "CA",
          "postalCode": "94040",
          "location": { "lat": 37.38641419400396, "lng": -122.08378385187241 },
          "photos": [],
          "comments": []
        },
        {
          "created": "2019-01-17T02:07:43.000Z",
          "id": "5c3fe36fe679bc002ca3a5b6",
          "createdDate": "Wed, Jan 16th, 2019",
          "createdTime": "6:07pm",
          "createdEpoch": 1547690863,
          "createdSince": "4 months ago",
          "name": "Hilton Garden Inn",
          "city": "Mountain View",
          "state": "CA",
          "postalCode": "94040",
          "location": { "lat": 37.3765227, "lng": -122.061496 },
          "photos": [],
          "comments": []
        },
        {
          "created": "2019-01-17T02:53:00.000Z",
          "id": "5c3fee0c51950e002ccb3f2e",
          "createdDate": "Wed, Jan 16th, 2019",
          "createdTime": "6:53pm",
          "createdEpoch": 1547693580,
          "createdSince": "4 months ago",
          "name": "Chop & Pub",
          "city": "Mountain View",
          "state": "CA",
          "postalCode": "94041",
          "location": { "lat": 37.39476140420786, "lng": -122.07847036780349 },
          "photos": [],
          "comments": []
        },
        {
          "created": "2019-01-17T04:29:57.000Z",
          "id": "5c4004c5de3bbf002c6c527e",
          "createdDate": "Wed, Jan 16th, 2019",
          "createdTime": "8:29pm",
          "createdEpoch": 1547699397,
          "createdSince": "4 months ago",
          "name": "Hilton Garden Inn",
          "city": "Mountain View",
          "state": "CA",
          "postalCode": "94040",
          "location": { "lat": 37.3765227, "lng": -122.061496 },
          "photos": [],
          "comments": []
        },
        {
          "created": "2019-01-17T18:07:37.000Z",
          "id": "5c40c4691822230025bf0d92",
          "createdDate": "Thu, Jan 17th, 2019",
          "createdTime": "10:07am",
          "createdEpoch": 1547748457,
          "createdSince": "4 months ago",
          "name": "Elastic",
          "crossStreet": "Castro",
          "city": "Mountain View",
          "state": "CA",
          "postalCode": "94040",
          "location": { "lat": 37.38641419400396, "lng": -122.08378385187241 },
          "photos": [],
          "comments": []
        },
        {
          "created": "2019-01-18T01:05:58.000Z",
          "id": "5c41267631ac6c0038c9872d",
          "createdDate": "Thu, Jan 17th, 2019",
          "createdTime": "5:05pm",
          "createdEpoch": 1547773558,
          "createdSince": "4 months ago",
          "name": "Facebook MPK 18",
          "city": "Menlo Park",
          "state": "CA",
          "postalCode": "94025",
          "location": { "lat": 37.48598161211403, "lng": -122.14694559574127 },
          "photos": [],
          "comments": []
        },
        {
          "created": "2019-01-18T05:59:01.000Z",
          "id": "5c416b251c9e2e002537a2a4",
          "createdDate": "Thu, Jan 17th, 2019",
          "createdTime": "9:59pm",
          "createdEpoch": 1547791141,
          "createdSince": "4 months ago",
          "name": "Hilton Garden Inn",
          "city": "Mountain View",
          "state": "CA",
          "postalCode": "94040",
          "location": { "lat": 37.3765227, "lng": -122.061496 },
          "photos": [],
          "comments": []
        },
        {
          "created": "2019-01-18T20:51:18.000Z",
          "id": "5c423c46971317002db3773f",
          "createdDate": "Fri, Jan 18th, 2019",
          "createdTime": "12:51pm",
          "createdEpoch": 1547844678,
          "createdSince": "4 months ago",
          "name": "PASTIS Bistro Français",
          "crossStreet": "at El Camino Real",
          "city": "Palo Alto",
          "state": "CA",
          "postalCode": "94306",
          "location": { "lat": 37.4258248877721, "lng": -122.14516109558177 },
          "photos": [],
          "comments": []
        },
        {
          "created": "2019-01-19T00:17:37.000Z",
          "id": "5c426ca146e1b6002cfcde89",
          "createdDate": "Fri, Jan 18th, 2019",
          "createdTime": "4:17pm",
          "createdEpoch": 1547857057,
          "createdSince": "4 months ago",
          "name": "Starbucks",
          "crossStreet": "Waverley St",
          "city": "Palo Alto",
          "state": "CA",
          "postalCode": "94301",
          "location": { "lat": 37.446737, "lng": -122.1604894 },
          "photos": [],
          "comments": []
        },
        {
          "created": "2019-01-19T00:38:21.000Z",
          "id": "5c42717dfc9e94002c5f8a4c",
          "createdDate": "Fri, Jan 18th, 2019",
          "createdTime": "4:38pm",
          "createdEpoch": 1547858301,
          "createdSince": "4 months ago",
          "name": "Blue Bottle Coffee",
          "crossStreet": "at Kipling St",
          "city": "Palo Alto",
          "state": "CA",
          "postalCode": "94301",
          "location": { "lat": 37.44748492121728, "lng": -122.15940873059341 },
          "photos": [],
          "comments": []
        }
      ],
      "count": 15
    },
    {
      "startDate": "2019-01-19T03:57:32.000Z",
      "center": { "lat": "37.789570", "lng": "-122.427568" },
      "endDate": "2019-01-20T05:13:34.000Z",
      "start": "January 18, 2019",
      "end": "January 20, 2019",
      "range": "01/18 to 01/20",
      "city": "San Francisco",
      "state": "CA",
      "checkins": [
        {
          "created": "2019-01-19T03:57:32.000Z",
          "id": "5c42a02cf62e09002c7e2a5f",
          "createdDate": "Fri, Jan 18th, 2019",
          "createdTime": "7:57pm",
          "createdEpoch": 1547870252,
          "createdSince": "4 months ago",
          "name": "Hotel Spero",
          "crossStreet": "Geary & O'Farrell",
          "city": "San Francisco",
          "state": "CA",
          "postalCode": "94102",
          "location": { "lat": 37.78604923637772, "lng": -122.41142961454595 },
          "photos": [],
          "comments": []
        },
        {
          "created": "2019-01-19T21:25:42.000Z",
          "id": "5c4395d646e1b6002c0eed37",
          "createdDate": "Sat, Jan 19th, 2019",
          "createdTime": "1:25pm",
          "createdEpoch": 1547933142,
          "createdSince": "4 months ago",
          "name": "SPQR",
          "crossStreet": "btwn Bush & Pine St",
          "city": "San Francisco",
          "state": "CA",
          "postalCode": "94115",
          "location": { "lat": 37.78728690606852, "lng": -122.43360621510921 },
          "photos": [],
          "comments": []
        },
        {
          "created": "2019-01-19T22:15:33.000Z",
          "id": "5c43a1853e6741002c31e5d8",
          "createdDate": "Sat, Jan 19th, 2019",
          "createdTime": "2:15pm",
          "createdEpoch": 1547936133,
          "createdSince": "4 months ago",
          "name": "Blue Bottle Coffee",
          "crossStreet": "Jackson",
          "city": "San Francisco",
          "state": "CA",
          "postalCode": "94115",
          "location": { "lat": 37.792407465475556, "lng": -122.43456996441651 },
          "photos": [],
          "comments": []
        },
        {
          "created": "2019-01-19T23:41:13.000Z",
          "id": "5c43b59944f41900252cf170",
          "createdDate": "Sat, Jan 19th, 2019",
          "createdTime": "3:41pm",
          "createdEpoch": 1547941273,
          "createdSince": "4 months ago",
          "name": "The Interval at Long Now",
          "city": "San Francisco",
          "state": "CA",
          "postalCode": "94123",
          "location": { "lat": 37.80654071386508, "lng": -122.43206667777437 },
          "comments": []
        },
        {
          "created": "2019-01-20T05:13:34.000Z",
          "id": "5c44037e9411f2002cb2b57f",
          "createdDate": "Sat, Jan 19th, 2019",
          "createdTime": "9:13pm",
          "createdEpoch": 1547961214,
          "createdSince": "4 months ago",
          "name": "Il Borgo",
          "shout": "Old favorite.",
          "city": "San Francisco",
          "state": "CA",
          "postalCode": "94102",
          "location": { "lat": 37.7755625269679, "lng": -122.42616828999313 },
          "photos": [],
          "comments": []
        }
      ],
      "count": 5
    },
    {
      "startDate": "2019-01-24T14:00:59.000Z",
      "center": { "lat": "40.643559", "lng": "-73.782637" },
      "endDate": "2019-01-24T14:01:18.000Z",
      "start": "January 24, 2019",
      "end": "January 24, 2019",
      "range": "01/24",
      "city": "Jamaica",
      "state": "NY",
      "checkins": [
        {
          "created": "2019-01-24T14:00:59.000Z",
          "id": "5c49c51b9de23b002c4e9220",
          "createdDate": "Thu, Jan 24th, 2019",
          "createdTime": "9:00am",
          "createdEpoch": 1548338459,
          "createdSince": "4 months ago",
          "name": "The Palm Bar & Grille",
          "crossStreet": "JFK International Airport",
          "city": "Jamaica",
          "state": "NY",
          "postalCode": "11430",
          "location": { "lat": 40.64356153548163, "lng": -73.78289706422665 },
          "photos": [],
          "comments": []
        },
        {
          "created": "2019-01-24T14:01:18.000Z",
          "id": "5c49c52e037be1002c2287eb",
          "createdDate": "Thu, Jan 24th, 2019",
          "createdTime": "9:01am",
          "createdEpoch": 1548338478,
          "createdSince": "4 months ago",
          "name": "Terminal 4",
          "city": "Queens",
          "state": "NY",
          "postalCode": "11430",
          "location": { "lat": 40.643557027432614, "lng": -73.78237663575771 },
          "photos": [],
          "comments": []
        }
      ],
      "count": 2
    },
    {
      "startDate": "2019-01-25T06:58:17.000Z",
      "center": { "lat": "-26.167668", "lng": "28.121575" },
      "endDate": "2019-01-27T06:31:16.000Z",
      "start": "January 25, 2019",
      "end": "January 27, 2019",
      "range": "01/25 to 01/27",
      "city": "Johannesburg",
      "state": "Gauteng",
      "checkins": [
        {
          "created": "2019-01-25T06:58:17.000Z",
          "id": "5c4ab3894aa3f8002c03dabd",
          "createdDate": "Fri, Jan 25th, 2019",
          "createdTime": "8:58am",
          "createdEpoch": 1548399497,
          "createdSince": "4 months ago",
          "name": "O. R. Tambo International Airport (JNB) (O. R. Tambo International Airport)",
          "city": "Kempton Park",
          "state": "Gauteng",
          "postalCode": "1627",
          "location": { "lat": -26.132804759249694, "lng": 28.2323956489563 },
          "photos": [],
          "comments": []
        },
        {
          "created": "2019-01-25T11:22:16.000Z",
          "id": "5c4af16844f4190025ba7004",
          "createdDate": "Fri, Jan 25th, 2019",
          "createdTime": "1:22pm",
          "createdEpoch": 1548415336,
          "createdSince": "4 months ago",
          "name": "Constitution Hill",
          "city": "Johannesburg",
          "state": "Gauteng",
          "postalCode": "2017",
          "location": { "lat": -26.189363850049055, "lng": 28.042482709135083 },
          "photos": [],
          "comments": []
        },
        {
          "created": "2019-01-25T12:50:11.000Z",
          "id": "5c4b06032aff31002c47476a",
          "createdDate": "Fri, Jan 25th, 2019",
          "createdTime": "2:50pm",
          "createdEpoch": 1548420611,
          "createdSince": "4 months ago",
          "name": "SAB World of Beer",
          "crossStreet": "Gerard Sekoto St",
          "city": "Johannesburg",
          "state": "Gauteng",
          "postalCode": "2001",
          "location": { "lat": -26.204160794146716, "lng": 28.033588135652025 },
          "photos": [],
          "comments": []
        },
        {
          "created": "2019-01-25T19:58:35.000Z",
          "id": "5c4b6a6b8b98fd00394123d3",
          "createdDate": "Fri, Jan 25th, 2019",
          "createdTime": "9:58pm",
          "createdEpoch": 1548446315,
          "createdSince": "4 months ago",
          "name": "Momo Kuro",
          "city": "Johannesburg",
          "state": "Gauteng",
          "postalCode": "2196",
          "location": { "lat": -26.143484, "lng": 28.036216 },
          "comments": []
        },
        {
          "created": "2019-01-25T20:39:22.000Z",
          "id": "5c4b73fa9de23b002c2a8759",
          "createdDate": "Fri, Jan 25th, 2019",
          "createdTime": "10:39pm",
          "createdEpoch": 1548448762,
          "createdSince": "4 months ago",
          "name": "Bedford Square",
          "location": { "lat": -26.188699757608504, "lng": 28.12540391172856 },
          "photos": [],
          "comments": []
        },
        {
          "created": "2019-01-26T09:16:45.000Z",
          "id": "5c4c257d60255e002ccf8a20",
          "createdDate": "Sat, Jan 26th, 2019",
          "createdTime": "11:16am",
          "createdEpoch": 1548494205,
          "createdSince": "4 months ago",
          "name": "Neighbourgoods Market",
          "crossStreet": "Braamfontein",
          "city": "Johannesburg",
          "state": "Gauteng",
          "postalCode": "2001",
          "location": { "lat": -26.194189779136586, "lng": 28.034887075080466 },
          "photos": [],
          "comments": []
        },
        {
          "created": "2019-01-26T13:09:43.000Z",
          "id": "5c4c5c17efa82a002cbabfed",
          "createdDate": "Sat, Jan 26th, 2019",
          "createdTime": "3:09pm",
          "createdEpoch": 1548508183,
          "createdSince": "4 months ago",
          "name": "Bedford Square",
          "location": { "lat": -26.188699757608504, "lng": 28.12540391172856 },
          "photos": [],
          "comments": []
        },
        {
          "created": "2019-01-27T06:23:25.000Z",
          "id": "5c4d4e5d588e36002ce832c1",
          "createdDate": "Sun, Jan 27th, 2019",
          "createdTime": "8:23am",
          "createdEpoch": 1548570205,
          "createdSince": "4 months ago",
          "name": "Terminal B Departure Lounge",
          "crossStreet": "O R Tambo Airport Rd",
          "city": "Kempton Park",
          "state": "Gauteng",
          "postalCode": "1627",
          "location": { "lat": -26.134577339981576, "lng": 28.231261264508852 },
          "photos": [],
          "comments": []
        },
        {
          "created": "2019-01-27T06:31:16.000Z",
          "id": "5c4d5034f5e9d70039d7de0c",
          "createdDate": "Sun, Jan 27th, 2019",
          "createdTime": "8:31am",
          "createdEpoch": 1548570676,
          "createdSince": "4 months ago",
          "name": "O. R. Tambo International Airport (JNB) (O. R. Tambo International Airport)",
          "city": "Kempton Park",
          "state": "Gauteng",
          "postalCode": "1627",
          "location": { "lat": -26.132804759249694, "lng": 28.2323956489563 },
          "photos": [],
          "comments": []
        }
      ],
      "count": 9
    },
    {
      "startDate": "2019-01-27T12:59:25.000Z",
      "center": { "lat": "-18.886593", "lng": "47.518635" },
      "endDate": "2019-01-28T06:20:49.000Z",
      "start": "January 27, 2019",
      "end": "January 28, 2019",
      "range": "01/27 to 01/28",
      "city": "Antananarivo",
      "state": "Analamanga Region",
      "checkins": [
        {
          "created": "2019-01-27T12:59:25.000Z",
          "id": "5c4dab2d840fc20039d8ebef",
          "createdDate": "Sun, Jan 27th, 2019",
          "createdTime": "3:59pm",
          "createdEpoch": 1548593965,
          "createdSince": "4 months ago",
          "name": "Ivato International Airport (TNR) (Ivato International Airport)",
          "city": "Antananarivo",
          "state": "Analamanga Region",
          "postalCode": "106",
          "location": { "lat": -18.799238962139253, "lng": 47.47535120772159 },
          "photos": [],
          "comments": []
        },
        {
          "created": "2019-01-27T12:59:51.000Z",
          "id": "5c4dab47a35dce002c338fd8",
          "createdDate": "Sun, Jan 27th, 2019",
          "createdTime": "3:59pm",
          "createdEpoch": 1548593991,
          "createdSince": "4 months ago",
          "name": "Hotel Shanghai",
          "location": { "lat": -18.908910771507788, "lng": 47.52401554267988 },
          "photos": [],
          "comments": []
        },
        {
          "created": "2019-01-27T16:49:41.000Z",
          "id": "5c4de125febf31002cad522d",
          "createdDate": "Sun, Jan 27th, 2019",
          "createdTime": "7:49pm",
          "createdEpoch": 1548607781,
          "createdSince": "4 months ago",
          "name": "Hotel Les Artistes",
          "location": { "lat": -18.908661, "lng": 47.525345 },
          "photos": [],
          "comments": []
        },
        {
          "created": "2019-01-27T16:49:52.000Z",
          "id": "5c4de130c9f907002b9d6f9f",
          "createdDate": "Sun, Jan 27th, 2019",
          "createdTime": "7:49pm",
          "createdEpoch": 1548607792,
          "createdSince": "4 months ago",
          "name": "Hotel Shanghai",
          "location": { "lat": -18.908910771507788, "lng": 47.52401554267988 },
          "photos": [],
          "comments": []
        },
        {
          "created": "2019-01-28T06:20:49.000Z",
          "id": "5c4e9f4167a9fe002c7f09c6",
          "createdDate": "Mon, Jan 28th, 2019",
          "createdTime": "9:20am",
          "createdEpoch": 1548656449,
          "createdSince": "4 months ago",
          "name": "Andrainarivo",
          "location": { "lat": -18.907238827598004, "lng": 47.54447366666922 },
          "photos": [],
          "comments": []
        }
      ],
      "count": 5
    },
    {
      "startDate": "2019-01-28T10:29:00.000Z",
      "center": { "lat": "-18.906325", "lng": "47.993395" },
      "endDate": "2019-01-28T10:31:00.000Z",
      "start": "January 28, 2019",
      "end": "January 28, 2019",
      "range": "01/28",
      "city": "",
      "state": "",
      "checkins": [
        {
          "created": "2019-01-28T10:29:00.000Z",
          "id": "5c4ed96c2a7ab600398389da",
          "createdDate": "Mon, Jan 28th, 2019",
          "createdTime": "1:29pm",
          "createdEpoch": 1548671340,
          "createdSince": "4 months ago",
          "name": "fitihiana",
          "location": { "lat": -18.926892, "lng": 47.95286 },
          "photos": [],
          "comments": []
        },
        {
          "created": "2019-01-28T10:31:00.000Z",
          "id": "5c4ed9e4c5b11c002c3eeff7",
          "createdDate": "Mon, Jan 28th, 2019",
          "createdTime": "1:31pm",
          "createdEpoch": 1548671460,
          "createdSince": "4 months ago",
          "name": "Madagascar Exotic Reserve Peyrieras",
          "location": { "lat": -18.88575, "lng": 48.03392 },
          "photos": [],
          "comments": []
        }
      ],
      "count": 2
    },
    {
      "startDate": "2019-01-28T12:45:35.000Z",
      "center": { "lat": "-18.924392", "lng": "48.425122" },
      "endDate": "2019-01-29T11:39:53.000Z",
      "start": "January 28, 2019",
      "end": "January 29, 2019",
      "range": "01/28 to 01/29",
      "city": "Andasibe",
      "state": "Province de Tamatave",
      "checkins": [
        {
          "created": "2019-01-28T12:45:35.000Z",
          "id": "5c4ef96ff193c0002ca812b4",
          "createdDate": "Mon, Jan 28th, 2019",
          "createdTime": "3:45pm",
          "createdEpoch": 1548679535,
          "createdSince": "4 months ago",
          "name": "Hotel Feon' ny ala",
          "location": { "lat": -18.947231980082996, "lng": 48.419035642173235 },
          "photos": [],
          "comments": []
        },
        {
          "created": "2019-01-29T08:16:53.000Z",
          "id": "5c500bf58110450038ddec53",
          "createdDate": "Tue, Jan 29th, 2019",
          "createdTime": "11:16am",
          "createdEpoch": 1548749813,
          "createdSince": "4 months ago",
          "name": "Parc National Andasibe Mantadia",
          "city": "Andasibe",
          "location": { "lat": -18.946880491066246, "lng": 48.417831431661476 },
          "photos": [],
          "comments": []
        },
        {
          "created": "2019-01-29T08:18:23.000Z",
          "id": "5c500c4f1cf2e1002c6fbdcc",
          "createdDate": "Tue, Jan 29th, 2019",
          "createdTime": "11:18am",
          "createdEpoch": 1548749903,
          "createdSince": "4 months ago",
          "name": "Marie Lodge",
          "location": { "lat": -18.947015, "lng": 48.417801 },
          "photos": [],
          "comments": []
        },
        {
          "created": "2019-01-29T11:39:51.000Z",
          "id": "5c503b8712c8f0002cd29a49",
          "createdDate": "Tue, Jan 29th, 2019",
          "createdTime": "2:39pm",
          "createdEpoch": 1548761991,
          "createdSince": "4 months ago",
          "name": "Vakôna Crocodile Farm",
          "state": "Province de Tamatave",
          "location": { "lat": -18.890574, "lng": 48.435986 },
          "photos": [],
          "comments": []
        },
        {
          "created": "2019-01-29T11:39:53.000Z",
          "id": "5c503b89c21cb1002b0e7050",
          "createdDate": "Tue, Jan 29th, 2019",
          "createdTime": "2:39pm",
          "createdEpoch": 1548761993,
          "createdSince": "4 months ago",
          "name": "Vakôna Lemur Park",
          "state": "Province de Tamatave",
          "location": { "lat": -18.890259, "lng": 48.43495 },
          "photos": [],
          "comments": []
        }
      ],
      "count": 5
    },
    {
      "startDate": "2019-01-31T10:10:16.000Z",
      "center": { "lat": "-19.896624", "lng": "46.981360" },
      "endDate": "2019-01-31T10:11:01.000Z",
      "start": "January 31, 2019",
      "end": "January 31, 2019",
      "range": "01/31",
      "city": "Antsirabe",
      "state": "Vakinankaratra Region",
      "checkins": [
        {
          "created": "2019-01-31T10:10:16.000Z",
          "id": "5c52c9889cadd900398647ca",
          "createdDate": "Thu, Jan 31st, 2019",
          "createdTime": "1:10pm",
          "createdEpoch": 1548929416,
          "createdSince": "3 months ago",
          "name": "Flower Palace",
          "crossStreet": "À Côté De La Gare",
          "city": "Antsirabe",
          "state": "Vakinankaratra Region",
          "location": { "lat": -19.86517648518514, "lng": 47.0364989305803 },
          "photos": [],
          "comments": []
        },
        {
          "created": "2019-01-31T10:11:01.000Z",
          "id": "5c52c9b560255e002c2eed49",
          "createdDate": "Thu, Jan 31st, 2019",
          "createdTime": "1:11pm",
          "createdEpoch": 1548929461,
          "createdSince": "3 months ago",
          "name": "Tritriva",
          "location": { "lat": -19.928054619342152, "lng": 46.926199360999924 },
          "photos": [],
          "comments": []
        }
      ],
      "count": 2
    },
    {
      "startDate": "2019-02-01T16:02:06.000Z",
      "center": { "lat": "-18.873348", "lng": "47.508197" },
      "endDate": "2019-02-02T17:44:34.000Z",
      "start": "February 1, 2019",
      "end": "February 2, 2019",
      "range": "02/01 to 02/02",
      "city": "Antananarivo",
      "state": "Analamanga Region",
      "checkins": [
        {
          "created": "2019-02-01T16:02:06.000Z",
          "id": "5c546d7ea35dce002c156bd7",
          "createdDate": "Fri, Feb 1st, 2019",
          "createdTime": "7:02pm",
          "createdEpoch": 1549036926,
          "createdSince": "3 months ago",
          "name": "La Varangue",
          "crossStreet": "Ambohitsorohitra",
          "city": "Antananarivo",
          "state": "Analamanga Region",
          "postalCode": "101",
          "location": { "lat": -18.911889507023535, "lng": 47.52524495796974 },
          "photos": [],
          "comments": []
        },
        {
          "created": "2019-02-01T18:29:03.000Z",
          "id": "5c548fef872f7d002c7446b1",
          "createdDate": "Fri, Feb 1st, 2019",
          "createdTime": "9:29pm",
          "createdEpoch": 1549045743,
          "createdSince": "3 months ago",
          "name": "Hotel Shanghai",
          "location": { "lat": -18.908910771507788, "lng": 47.52401554267988 },
          "photos": [],
          "comments": []
        },
        {
          "created": "2019-02-02T17:44:34.000Z",
          "id": "5c55d7022aff31002c712990",
          "createdDate": "Sat, Feb 2nd, 2019",
          "createdTime": "8:44pm",
          "createdEpoch": 1549129474,
          "createdSince": "3 months ago",
          "name": "Ivato International Airport (TNR) (Ivato International Airport)",
          "shout": "Mauritius here we come...!",
          "city": "Antananarivo",
          "state": "Analamanga Region",
          "postalCode": "106",
          "location": { "lat": -18.799238962139253, "lng": 47.47535120772159 },
          "photos": [],
          "comments": []
        }
      ],
      "count": 3
    },
    {
      "startDate": "2019-02-02T21:07:38.000Z",
      "center": { "lat": "-20.436034", "lng": "57.675941" },
      "endDate": "2019-02-03T06:58:38.000Z",
      "start": "February 2, 2019",
      "end": "February 3, 2019",
      "range": "02/02 to 02/03",
      "city": "Plain Magnien",
      "state": "Mauritius",
      "checkins": [
        {
          "created": "2019-02-02T21:07:38.000Z",
          "id": "5c56069a31ac6c002cdd90d7",
          "createdDate": "Sun, Feb 3rd, 2019",
          "createdTime": "1:07am",
          "createdEpoch": 1549141658,
          "createdSince": "3 months ago",
          "name": "Sir Seewoosagur Ramgoolam International Airport (MRU)",
          "city": "Plain Magnien",
          "state": "Mauritius",
          "location": { "lat": -20.433406815114637, "lng": 57.67850019872364 },
          "photos": [],
          "comments": []
        },
        {
          "created": "2019-02-03T06:41:11.000Z",
          "id": "5c568d07c0cacb002c45c1c5",
          "createdDate": "Sun, Feb 3rd, 2019",
          "createdTime": "10:41am",
          "createdEpoch": 1549176071,
          "createdSince": "3 months ago",
          "name": "OLA Mauritius Car Rental",
          "city": "Plaine Magnien",
          "state": "Grand Port District",
          "postalCode": "742CU001",
          "location": { "lat": -20.434050579625822, "lng": 57.6777720451355 },
          "photos": [],
          "comments": []
        },
        {
          "created": "2019-02-03T06:58:38.000Z",
          "id": "5c56911e6336be002ca270e9",
          "createdDate": "Sun, Feb 3rd, 2019",
          "createdTime": "10:58am",
          "createdEpoch": 1549177118,
          "createdSince": "3 months ago",
          "name": "Holiday Inn Hotel Mauritius, SSRI Airport",
          "location": { "lat": -20.44064451866285, "lng": 57.671551176117596 },
          "photos": [],
          "comments": []
        }
      ],
      "count": 3
    },
    {
      "startDate": "2019-02-08T09:23:31.000Z",
      "center": { "lat": "-20.429926", "lng": "57.602303" },
      "endDate": "2019-02-08T12:25:08.000Z",
      "start": "February 8, 2019",
      "end": "February 8, 2019",
      "range": "02/08",
      "city": "Plaine Magnien",
      "state": "Grand Port District",
      "checkins": [
        {
          "created": "2019-02-08T09:23:31.000Z",
          "id": "5c5d4a933e6741002cbc014b",
          "createdDate": "Fri, Feb 8th, 2019",
          "createdTime": "1:23pm",
          "createdEpoch": 1549617811,
          "createdSince": "3 months ago",
          "name": "Chamarel Viewpoint",
          "location": { "lat": -20.421267015663, "lng": 57.38643539383012 },
          "photos": [],
          "comments": []
        },
        {
          "created": "2019-02-08T10:37:28.000Z",
          "id": "5c5d5be81af852002cc08ec8",
          "createdDate": "Fri, Feb 8th, 2019",
          "createdTime": "2:37pm",
          "createdEpoch": 1549622248,
          "createdSince": "3 months ago",
          "name": "Engen",
          "city": "Plaine Magnien",
          "state": "Grand Port District",
          "location": { "lat": -20.430802, "lng": 57.666521 },
          "photos": [],
          "comments": []
        },
        {
          "created": "2019-02-08T10:47:45.000Z",
          "id": "5c5d5e51f193c0002c434810",
          "createdDate": "Fri, Feb 8th, 2019",
          "createdTime": "2:47pm",
          "createdEpoch": 1549622865,
          "createdSince": "3 months ago",
          "name": "OLA Mauritius Car Rental",
          "city": "Plaine Magnien",
          "state": "Grand Port District",
          "postalCode": "742CU001",
          "location": { "lat": -20.434050579625822, "lng": 57.6777720451355 },
          "photos": [],
          "comments": []
        },
        {
          "created": "2019-02-08T12:25:08.000Z",
          "id": "5c5d752460d11b002c313e58",
          "createdDate": "Fri, Feb 8th, 2019",
          "createdTime": "4:25pm",
          "createdEpoch": 1549628708,
          "createdSince": "3 months ago",
          "name": "Sir Seewoosagur Ramgoolam International Airport (MRU)",
          "city": "Plain Magnien",
          "state": "Mauritius",
          "location": { "lat": -20.433406815114637, "lng": 57.67850019872364 },
          "photos": [],
          "comments": []
        }
      ],
      "count": 4
    },
    {
      "startDate": "2019-02-10T13:13:20.000Z",
      "center": { "lat": "40.658168", "lng": "-73.911454" },
      "endDate": "2019-02-10T19:45:08.000Z",
      "start": "February 10, 2019",
      "end": "February 10, 2019",
      "range": "02/10",
      "city": "Brooklyn",
      "state": "NY",
      "checkins": [
        {
          "created": "2019-02-10T13:13:20.000Z",
          "id": "5c6023701953f3002c8a6ea1",
          "createdDate": "Sun, Feb 10th, 2019",
          "createdTime": "8:13am",
          "createdEpoch": 1549804400,
          "createdSince": "3 months ago",
          "name": "John F. Kennedy International Airport (JFK)",
          "crossStreet": "Van Wyck Expy",
          "city": "Queens",
          "state": "NY",
          "postalCode": "11430",
          "location": { "lat": 40.645121918369526, "lng": -73.78460884094238 },
          "photos": [],
          "comments": []
        },
        {
          "created": "2019-02-10T19:44:37.000Z",
          "id": "5c607f25628c83002d196b3b",
          "createdDate": "Sun, Feb 10th, 2019",
          "createdTime": "2:44pm",
          "createdEpoch": 1549827877,
          "createdSince": "3 months ago",
          "name": "Bluebird Food & Spirits",
          "city": "Brooklyn",
          "state": "NY",
          "postalCode": "11225",
          "location": { "lat": 40.66164551315244, "lng": -73.96220156272098 },
          "photos": [],
          "comments": []
        },
        {
          "created": "2019-02-10T19:45:08.000Z",
          "id": "5c607f44c66666002c7c301f",
          "createdDate": "Sun, Feb 10th, 2019",
          "createdTime": "2:45pm",
          "createdEpoch": 1549827908,
          "createdSince": "3 months ago",
          "name": "Tacos Nuevo Mexico",
          "crossStreet": "btwn 11th and 12th St.",
          "city": "Brooklyn",
          "state": "NY",
          "postalCode": "11215",
          "location": { "lat": 40.6676314582223, "lng": -73.9875895894939 },
          "comments": []
        }
      ],
      "count": 3
    },
    {
      "startDate": "2019-03-08T17:43:15.000Z",
      "center": { "lat": "47.547743", "lng": "-122.327754" },
      "endDate": "2019-03-08T18:55:04.000Z",
      "start": "March 8, 2019",
      "end": "March 8, 2019",
      "range": "03/08",
      "city": "SeaTac",
      "state": "WA",
      "checkins": [
        {
          "created": "2019-03-08T17:43:15.000Z",
          "id": "5c82a9b3e97dfb002cec1e47",
          "createdDate": "Fri, Mar 8th, 2019",
          "createdTime": "9:43am",
          "createdEpoch": 1552066995,
          "createdSince": "2 months ago",
          "name": "Seattle-Tacoma International Airport (SEA)",
          "crossStreet": "at S 188th St",
          "city": "SeaTac",
          "state": "WA",
          "postalCode": "98158",
          "location": { "lat": 47.44358853419229, "lng": -122.302508354187 },
          "photos": [],
          "comments": []
        },
        {
          "created": "2019-03-08T18:55:04.000Z",
          "id": "5c82ba88a2c00b002cf58553",
          "createdDate": "Fri, Mar 8th, 2019",
          "createdTime": "10:55am",
          "createdEpoch": 1552071304,
          "createdSince": "2 months ago",
          "name": "Fremont Coffee Company",
          "crossStreet": "btwn Dayton Ave N and Francis Ave N",
          "city": "Seattle",
          "state": "WA",
          "postalCode": "98103",
          "location": { "lat": 47.65189155782777, "lng": -122.35310113877036 },
          "photos": [],
          "comments": []
        }
      ],
      "count": 2
    },
    {
      "startDate": "2019-03-09T05:37:42.000Z",
      "center": { "lat": "48.115209", "lng": "-123.418929" },
      "endDate": "2019-03-09T16:15:32.000Z",
      "start": "March 9, 2019",
      "end": "March 9, 2019",
      "range": "03/09",
      "city": "Port Angeles",
      "state": "WA",
      "checkins": [
        {
          "created": "2019-03-09T05:37:42.000Z",
          "id": "5c835126a4ba7c002cb7ee38",
          "createdDate": "Fri, Mar 8th, 2019",
          "createdTime": "9:37pm",
          "createdEpoch": 1552109862,
          "createdSince": "2 months ago",
          "name": "Days Inn",
          "city": "Port Angeles",
          "state": "WA",
          "postalCode": "98362",
          "location": { "lat": 48.10893416831195, "lng": -123.40670092459715 },
          "photos": [],
          "comments": []
        },
        {
          "created": "2019-03-09T16:15:32.000Z",
          "id": "5c83e6a412f0a90039bba586",
          "createdDate": "Sat, Mar 9th, 2019",
          "createdTime": "8:15am",
          "createdEpoch": 1552148132,
          "createdSince": "2 months ago",
          "name": "Port Angeles Auto and Passenger Ferry Terminal",
          "city": "Port Angeles",
          "state": "WA",
          "location": { "lat": 48.121483, "lng": -123.43116 },
          "comments": []
        }
      ],
      "count": 2
    },
    {
      "startDate": "2019-03-09T23:20:21.000Z",
      "center": { "lat": "49.238108", "lng": "-124.144902" },
      "endDate": "2019-03-10T01:17:59.000Z",
      "start": "March 9, 2019",
      "end": "March 9, 2019",
      "range": "03/09",
      "city": "Parksville",
      "state": "BC",
      "checkins": [
        {
          "created": "2019-03-09T23:20:21.000Z",
          "id": "5c844a35be7078002c988c52",
          "createdDate": "Sat, Mar 9th, 2019",
          "createdTime": "3:20pm",
          "createdEpoch": 1552173621,
          "createdSince": "2 months ago",
          "name": "Morrell Nature Sanctuary",
          "location": { "lat": 49.15353938429371, "lng": -123.97500451368148 },
          "photos": [],
          "comments": []
        },
        {
          "created": "2019-03-10T01:17:59.000Z",
          "id": "5c8465c7e55d8b002c1984ab",
          "createdDate": "Sat, Mar 9th, 2019",
          "createdTime": "5:17pm",
          "createdEpoch": 1552180679,
          "createdSince": "2 months ago",
          "name": "The Beach Club Resort",
          "crossStreet": "Island Highway",
          "city": "Parksville",
          "state": "BC",
          "postalCode": "V9P 2H5",
          "location": { "lat": 49.32242649645615, "lng": -124.31538222416154 },
          "photos": [],
          "comments": []
        }
      ],
      "count": 2
    },
    {
      "startDate": "2019-03-11T01:26:48.000Z",
      "center": { "lat": "49.282788", "lng": "-123.125590" },
      "endDate": "2019-03-11T18:43:05.000Z",
      "start": "March 10, 2019",
      "end": "March 11, 2019",
      "range": "03/10 to 03/11",
      "city": "Vancouver",
      "state": "BC",
      "checkins": [
        {
          "created": "2019-03-11T01:26:48.000Z",
          "id": "5c85b9587dc9e1002c1d1e02",
          "createdDate": "Sun, Mar 10th, 2019",
          "createdTime": "6:26pm",
          "createdEpoch": 1552267608,
          "createdSince": "2 months ago",
          "name": "Kits Point Dog Beach",
          "crossStreet": "at Cypress",
          "city": "Vancouver",
          "state": "BC",
          "location": { "lat": 49.27814317586325, "lng": -123.14886088772718 },
          "photos": [],
          "comments": []
        },
        {
          "created": "2019-03-11T18:26:46.000Z",
          "id": "5c86a86631fd14002ce71608",
          "createdDate": "Mon, Mar 11th, 2019",
          "createdTime": "11:26am",
          "createdEpoch": 1552328806,
          "createdSince": "2 months ago",
          "name": "Revolver",
          "crossStreet": "btwn Hastings & Cordova",
          "city": "Vancouver",
          "state": "BC",
          "postalCode": "V6B 1H7",
          "location": { "lat": 49.2831867506594, "lng": -123.10928769992123 },
          "photos": [],
          "comments": []
        },
        {
          "created": "2019-03-11T18:43:05.000Z",
          "id": "5c86ac39c03635002c75e3dc",
          "createdDate": "Mon, Mar 11th, 2019",
          "createdTime": "11:43am",
          "createdEpoch": 1552329785,
          "createdSince": "2 months ago",
          "name": "Meat & Bread",
          "crossStreet": "btwn Thurlow & Burrard",
          "city": "Vancouver",
          "state": "BC",
          "postalCode": "V6E 2M6",
          "location": { "lat": 49.28702890977933, "lng": -123.11861855376539 },
          "photos": [],
          "comments": []
        }
      ],
      "count": 3
    },
    {
      "startDate": "2019-05-02T17:14:51.000Z",
      "center": { "lat": "43.254938", "lng": "-79.071825" },
      "endDate": "2019-05-04T20:35:57.000Z",
      "start": "May 2, 2019",
      "end": "May 4, 2019",
      "range": "05/02 to 05/04",
      "city": "Niagara-on-the-Lake",
      "state": "ON",
      "checkins": [
        {
          "created": "2019-05-02T17:14:51.000Z",
          "id": "5ccb258beaf49a002c547322",
          "createdDate": "Thu, May 2nd, 2019",
          "createdTime": "1:14pm",
          "createdEpoch": 1556817291,
          "createdSince": "2 weeks ago",
          "name": "Balzac's Coffee",
          "crossStreet": "at Queen St.",
          "city": "Niagara-on-the-Lake",
          "state": "ON",
          "postalCode": "L0S 1J0",
          "location": { "lat": 43.25444710084112, "lng": -79.07147520533269 },
          "photos": [],
          "comments": []
        },
        {
          "created": "2019-05-04T20:35:57.000Z",
          "id": "5ccdf7ad2632ec002c01b7ff",
          "createdDate": "Sat, May 4th, 2019",
          "createdTime": "4:35pm",
          "createdEpoch": 1557002157,
          "createdSince": "2 weeks ago",
          "name": "Nina Gelateria",
          "city": "Niagara-on-the-Lake",
          "state": "ON",
          "postalCode": "L0S 1J0",
          "location": { "lat": 43.2554297990431, "lng": -79.07217451951213 },
          "photos": [],
          "comments": []
        }
      ],
      "count": 2
    },
    {
      "startDate": "2019-05-13T22:41:10.000Z",
      "center": { "lat": "28.428632", "lng": "-81.428535" },
      "endDate": "2019-05-14T02:14:59.000Z",
      "start": "May 13, 2019",
      "end": "May 13, 2019",
      "range": "05/13",
      "city": "Orlando",
      "state": "FL",
      "checkins": [
        {
          "created": "2019-05-13T22:41:10.000Z",
          "id": "5cd9f28660255e002c330968",
          "createdDate": "Mon, May 13th, 2019",
          "createdTime": "6:41pm",
          "createdEpoch": 1557787270,
          "createdSince": "3 days ago",
          "name": "Orlando International Airport (MCO)",
          "shout": "Elastic All Hands!",
          "crossStreet": "btwn State Rd 528 & State Rd 417",
          "city": "Orlando",
          "state": "FL",
          "postalCode": "32827",
          "location": { "lat": 28.43088316269455, "lng": -81.30756139755249 },
          "photos": [],
          "comments": []
        },
        {
          "created": "2019-05-14T00:02:54.000Z",
          "id": "5cda05aef4b525002c22baf5",
          "createdDate": "Mon, May 13th, 2019",
          "createdTime": "8:02pm",
          "createdEpoch": 1557792174,
          "createdSince": "3 days ago",
          "name": "Rocks",
          "city": "Orlando",
          "state": "FL",
          "postalCode": "32819",
          "location": { "lat": 28.427679285186294, "lng": -81.4690382740733 },
          "photos": [],
          "comments": []
        },
        {
          "created": "2019-05-14T00:29:43.000Z",
          "id": "5cda0bf7872f7d002c045a4f",
          "createdDate": "Mon, May 13th, 2019",
          "createdTime": "8:29pm",
          "createdEpoch": 1557793783,
          "createdSince": "3 days ago",
          "name": "Hyatt Regency Orlando",
          "city": "Orlando",
          "state": "FL",
          "postalCode": "32819",
          "location": { "lat": 28.427560748223602, "lng": -81.46864538654108 },
          "photos": [],
          "comments": []
        },
        {
          "created": "2019-05-14T02:14:59.000Z",
          "id": "5cda24a37564f70039c7512b",
          "createdDate": "Mon, May 13th, 2019",
          "createdTime": "10:14pm",
          "createdEpoch": 1557800099,
          "createdSince": "3 days ago",
          "name": "Hyatt Regency Orlando Pool",
          "city": "Orlando",
          "state": "FL",
          "postalCode": "32819",
          "location": { "lat": 28.4283328151113, "lng": -81.46889206013641 },
          "photos": [],
          "comments": []
        }
      ],
      "count": 4
    }
  ]
}
